{
  "0": {
    "POI": "43df8ad6f964a520b92e1fe3",
    "latidude": 40.731356448341,
    "longitude": -73.988671302795,
    "photos": "https:\/\/irs3.4sqi.net\/img\/general\/612x612\/343235_eezF7KZ55QpdVVNuMTFOO86bikjUbmrxb1IEuf2C1uI.jpg",
    "POI_category_id": "Arts & Entertainment",
    "POI_name": "AMC Loews Village 7"
  },
  "1": {
    "POI": "4bfec352daf9c9b64038f9ef",
    "latidude": 40.75358312925,
    "longitude": -74.214450350548,
    "photos": "https:\/\/irs1.4sqi.net\/img\/general\/540x720\/c5xfqE_ajHOZb1LBtUBEdYNlc9aQ12EoPcavI_dVkDw.jpg",
    "POI_category_id": "Food",
    "POI_name": "Wendy's"
  },
  "2": {
    "POI": "3fd66200f964a52014e71ee3",
    "latidude": 40.73755669761,
    "longitude": -74.008187523221,
    "photos": "https:\/\/irs3.4sqi.net\/img\/general\/720x537\/KeNvAofVJbf-5VUQ1HNCf1AoAFYtQdeto1nf-z8xMTY.jpg",
    "POI_category_id": "Food",
    "POI_name": "Tortilla Flats"
  },
  "3": {
    "POI": "49b5889bf964a520fa521fe3",
    "latidude": 40.733787294545,
    "longitude": -73.993035256863,
    "photos": "https:\/\/irs0.4sqi.net\/img\/general\/612x612\/tU9YFXppyxSRkItkC4OxPHH-lExqZrgYF2zFVmCaoEM.jpg",
    "POI_category_id": "Food",
    "POI_name": "The Grey Dog"
  },
  "4": {
    "POI": "4a1f42aff964a520167c1fe3",
    "latidude": 40.759534,
    "longitude": -73.991765,
    "photos": "https:\/\/irs2.4sqi.net\/img\/general\/540x720\/1092221_X7Zzph9MjC7iICWMbH_KEcXV1031-AkF-3cY8ltcZcY.jpg",
    "POI_category_id": "Food",
    "POI_name": "Chipotle Mexican Grill"
  },
  "5": {
    "POI": "4afb2990f964a520a91b22e3",
    "latidude": 40.738407126788,
    "longitude": -73.98565727115,
    "photos": "https:\/\/irs2.4sqi.net\/img\/general\/720x540\/1342156_krvyN_9AUGECK0WwuGlVg8qIRhuI-KqU7lQ0CB0LtyY.jpg",
    "POI_category_id": "Food",
    "POI_name": "Maialino"
  },
  "6": {
    "POI": "4bd1b96a77b29c7439118d82",
    "latidude": 40.577455581208,
    "longitude": -73.981246948242,
    "photos": "https:\/\/irs0.4sqi.net\/img\/general\/612x612\/57592926_b5IlRsPu8cLCv3g9fu56NdoOTHoxt9_FwLrnLhfImcQ.jpg",
    "POI_category_id": "Food",
    "POI_name": "MTA Subway - Coney Island\/Stillwell Ave (D\/F\/"
  },
  "7": {
    "POI": "4a95adabf964a520202420e3",
    "latidude": 40.737339910011,
    "longitude": -73.996868133545,
    "photos": "https:\/\/irs1.4sqi.net\/img\/general\/612x612\/179688_TZ3GOqmAk0nepLpMgl91vt7qt_zpexFWwp4VPbk5_dw.jpg",
    "POI_category_id": "Food",
    "POI_name": "14th Street PATH Station"
  },
  "8": {
    "POI": "4b0b2275f964a520772d23e3",
    "latidude": 40.758857102003,
    "longitude": -73.981094658982,
    "photos": "https:\/\/irs3.4sqi.net\/img\/general\/540x720\/eND-wC-RI2n4no-42ZZbeSOTu_bADcwbhWJNDFqWa_I.jpg",
    "POI_category_id": "Food",
    "POI_name": "MTA Subway - 47th-50th St\/Rockefeller Center "
  },
  "9": {
    "POI": "4481ada4f964a52018341fe3",
    "latidude": 40.676252435314,
    "longitude": -73.980152606964,
    "photos": "https:\/\/irs1.4sqi.net\/img\/general\/500x375\/54966798_jtvcld6QtIZwYW-eX0huetXb39_13kIIbtxY_czm7qc.jpg",
    "POI_category_id": "Bars",
    "POI_name": "Union Hall"
  },
  "10": {
    "POI": "4ae5a028f964a52022a121e3",
    "latidude": 40.874486,
    "longitude": -73.909589,
    "photos": "https:\/\/irs0.4sqi.net\/img\/general\/612x612\/2212554__3fgfcJhLyWqSwy9Pd7QgEs7IHUMi17xVJATt-2iIWQ.jpg",
    "POI_category_id": "Food",
    "POI_name": "MTA Subway - 225th St\/Marble Hill (1)"
  },
  "11": {
    "POI": "3fd66200f964a5202be41ee3",
    "latidude": 40.726104216544,
    "longitude": -73.989213109016,
    "photos": "https:\/\/irs1.4sqi.net\/img\/general\/406x720\/JN1SY5LUSFCJS1VW3Y2HRTMHKEHVR4BDEB40YYRITYY0MMGF.jpg",
    "POI_category_id": "Bars",
    "POI_name": "Boiler Room"
  },
  "12": {
    "POI": "4b969536f964a52070d634e3",
    "latidude": 40.831282826478,
    "longitude": -73.941392502021,
    "photos": "https:\/\/irs1.4sqi.net\/img\/general\/720x540\/TtLH8jJ2rrbsJm1CPdx2XhHwasL_SX7pelIVHXP71go.jpg",
    "POI_category_id": "Food",
    "POI_name": "MTA Subway - 155th St (C)"
  },
  "13": {
    "POI": "4d39adca6de7721efe03e749",
    "latidude": 40.592250764501,
    "longitude": -74.16298623508,
    "photos": "https:\/\/irs3.4sqi.net\/img\/general\/717x959\/20501797_TdOua6k3ViZ1THxPekXRpdhlVR2OqrUI8d_VwLOht5I.jpg",
    "POI_category_id": "Food",
    "POI_name": "Barnes & Noble Cafe"
  },
  "14": {
    "POI": "49ba7840f964a52067531fe3",
    "latidude": 40.72649307825,
    "longitude": -74.005301090295,
    "photos": "https:\/\/irs3.4sqi.net\/img\/general\/600x600\/2CLGFLxOTE9tgYcr8f23gGK4YzbDgj-wubTvy5Nxv4Y.jpg",
    "POI_category_id": "Arts & Entertainment",
    "POI_name": "WNYC Radio"
  },
  "15": {
    "POI": "4bc91d7d937ca593f851a592",
    "latidude": 40.753352785224,
    "longitude": -73.908428415886,
    "photos": "https:\/\/irs0.4sqi.net\/img\/general\/540x720\/34001738_rNmitgSnfGoYEQyMOd2gH4EBFYeYJErOfqaSirgDR3o.jpg",
    "POI_category_id": "Food",
    "POI_name": "McDonald's"
  },
  "16": {
    "POI": "4cc9a5760f7bef3b5f9c7fdd",
    "latidude": 40.745889142427,
    "longitude": -73.988521044047,
    "photos": "https:\/\/irs1.4sqi.net\/img\/general\/612x612\/xqhK_due8OJ9TKOzDp24TNWHgNsBr9CizOP6G0bk8-E.jpg",
    "POI_category_id": "Food",
    "POI_name": "John Dory Oyster Bar"
  },
  "17": {
    "POI": "3fd66200f964a52016e51ee3",
    "latidude": 40.723066844934,
    "longitude": -73.988503827103,
    "photos": "https:\/\/irs1.4sqi.net\/img\/general\/720x540\/OHCGO1TLE3ZNQJ2XXNS2YZKY21SOHA4DKLOWNAZUD1L5ET0D.jpg",
    "POI_category_id": "Bars",
    "POI_name": "One & One"
  },
  "18": {
    "POI": "3fd66200f964a520c7f11ee3",
    "latidude": 40.731681650304,
    "longitude": -73.996181488037,
    "photos": "https:\/\/irs0.4sqi.net\/img\/general\/960x720\/9301294_eX278L9JX_x2rlFeS8tZnk237ZuKzHnr9u2N38_4Ta8.jpg",
    "POI_category_id": "Food",
    "POI_name": "Otto Enoteca Pizzeria"
  },
  "19": {
    "POI": "4e8aaccd4fc68f2d71de9384",
    "latidude": 40.815863555217,
    "longitude": -73.907759785652,
    "photos": "https:\/\/irs0.4sqi.net\/img\/general\/1440x1478\/54810571_aQnKDRYsIJs3eZev0t3xbay4tI3blTW-XPAKU0R_gXE.jpg",
    "POI_category_id": "Food",
    "POI_name": "Grocery Store 24\/7"
  },
  "20": {
    "POI": "43d9af53f964a520702e1fe3",
    "latidude": 40.759412209415,
    "longitude": -73.991780757589,
    "photos": "https:\/\/irs3.4sqi.net\/img\/general\/3003x2188\/95423_88QG0ZLWCELmfd7qT8xy7WbFEHdt98n8MG6O8ycXoBk.jpg",
    "POI_category_id": "Food",
    "POI_name": "Westway Diner"
  },
  "21": {
    "POI": "4cc805928c5b236a9499fc6d",
    "latidude": 40.849123726756,
    "longitude": -73.883285387242,
    "photos": "https:\/\/irs0.4sqi.net\/img\/general\/720x960\/9735085_7OgN7NAzuX6SG38D-g7JaKdVA8d3Li8VB7j68HVdLZI.jpg",
    "POI_category_id": "Food",
    "POI_name": "Dunkin Donuts"
  },
  "22": {
    "POI": "4e3156877d8b9b256bca1e42",
    "latidude": 40.756923378657,
    "longitude": -73.991516768764,
    "photos": "https:\/\/irs2.4sqi.net\/img\/general\/960x720\/36935673_zrlZ11TGQA6blGUi7knT9DxKVIv93smGNAeQd0fZi9s.jpg",
    "POI_category_id": "Food",
    "POI_name": "Casa Java"
  },
  "23": {
    "POI": "4ded9df9d164f9a5c67df34a",
    "latidude": 40.676850543628,
    "longitude": -73.724602029146,
    "photos": "https:\/\/irs0.4sqi.net\/img\/general\/537x720\/ZHN0BRWXVL1WLTILU2N4NBOSBGHJKM5VC2EC0FNU3X5GHKVR.jpg",
    "POI_category_id": "Bars",
    "POI_name": "GiRLS WORLD ?"
  },
  "24": {
    "POI": "4cb06cd5aef16dcb8883b054",
    "latidude": 40.774093,
    "longitude": -74.03775911,
    "photos": "https:\/\/irs3.4sqi.net\/img\/general\/537x720\/wuts_1X0qwnQNIcOPpv7FTPUEoBSlPny-q5xMHJltFY.jpg",
    "POI_category_id": "Food",
    "POI_name": "SONIC Drive In"
  },
  "25": {
    "POI": "4b44a049f964a5201cf825e3",
    "latidude": 40.704912211726,
    "longitude": -74.014012813568,
    "photos": "https:\/\/irs1.4sqi.net\/img\/general\/540x720\/7xNpLrcw2esobbImjW44AL7SiJ9yZjCIcvejX0GLw6s.jpg",
    "POI_category_id": "Food",
    "POI_name": "MTA Subway - Bowling Green (4\/5)"
  },
  "26": {
    "POI": "49d675c5f964a520d15c1fe3",
    "latidude": 40.767342706259,
    "longitude": -73.96570724054,
    "photos": "https:\/\/irs0.4sqi.net\/img\/general\/960x720\/646_xsi1ob9Qotm-9ieYUaYYSinZEQAwJGXQOcc5x8SoX4s.jpg",
    "POI_category_id": "Arts & Entertainment",
    "POI_name": "Park Avenue Armory"
  },
  "27": {
    "POI": "4bbf4ef2b083a593232aa3e9",
    "latidude": 40.609069180682,
    "longitude": -73.97311126197,
    "photos": "https:\/\/irs2.4sqi.net\/img\/general\/720x540\/JQCQYC0S5UKUCUN5DLU5IKORN5JCAX2UGOSRCPYARPIFTASB.jpg",
    "POI_category_id": "Food",
    "POI_name": "MTA Subway - Avenue P (F)"
  },
  "28": {
    "POI": "4d78e23c0ddba35dd2904776",
    "latidude": 40.742679135144,
    "longitude": -73.992922792013,
    "photos": "https:\/\/irs0.4sqi.net\/img\/general\/720x406\/3736481_BmnaI3p1sRDFtwNSiuoiV1uRIZ669IOP0xKjeRaNt2g.jpg",
    "POI_category_id": "Food",
    "POI_name": "Just Salad"
  },
  "29": {
    "POI": "4fa3ca7fe4b0b487ccc604a3",
    "latidude": 40.957993363387,
    "longitude": -74.107464463256,
    "photos": "https:\/\/irs1.4sqi.net\/img\/general\/720x540\/ZRxnlzXtEGi_13Cs5421X49XCO-deIGeGNwtj8FXcZs.jpg",
    "POI_category_id": "Arts & Entertainment",
    "POI_name": "Star Wars Day 2012"
  },
  "30": {
    "POI": "4a660f0bf964a520eac71fe3",
    "latidude": 40.722505924021,
    "longitude": -73.997651545572,
    "photos": "https:\/\/irs3.4sqi.net\/img\/general\/540x720\/39399307_Pc031D18CQyGyKXVMBAW__kxNLm-DXrg5__49o0aucM.jpg",
    "POI_category_id": "Food",
    "POI_name": "D&D Deli & Grocery"
  },
  "31": {
    "POI": "4b2c7911f964a52044c724e3",
    "latidude": 40.821344149632,
    "longitude": -73.954038619995,
    "photos": "https:\/\/irs3.4sqi.net\/img\/general\/431x720\/SYILGEXNBORDNKILC3YBF5B35H1GRLTLB4D3T5BNG2X1JFYE.jpg",
    "POI_category_id": "Food",
    "POI_name": "MTA Subway - 137th St\/City College (1)"
  },
  "32": {
    "POI": "4b1f3784f964a520ec2424e3",
    "latidude": 40.738559299503,
    "longitude": -74.030728340149,
    "photos": "https:\/\/irs3.4sqi.net\/img\/general\/1440x1920\/33367683_7gi5bhl56Q6rw9oGHz_XLAwCB2qbmvlk_J9cvKArU4Y.jpg",
    "POI_category_id": "Food",
    "POI_name": "Johnny Rockets"
  },
  "33": {
    "POI": "4ce157ff0de52c0f62a0a10c",
    "latidude": 40.730096,
    "longitude": -73.992499,
    "photos": "https:\/\/irs1.4sqi.net\/img\/general\/717x959\/329225_p31nJ1ttE6hDM_8th6eMl-FS7Yu9wXBVCqg_KhufP6U.jpg",
    "POI_category_id": "Food",
    "POI_name": "Financier Patisserie"
  },
  "34": {
    "POI": "3fd66200f964a52036e71ee3",
    "latidude": 40.730465,
    "longitude": -74.00426030159,
    "photos": "https:\/\/irs0.4sqi.net\/img\/general\/612x612\/kBNg0Z1uGMMEbcZJI_UCLOzVXgVpFixP_8IGvGTWJGE.jpg",
    "POI_category_id": "Bars",
    "POI_name": "The Village Tavern"
  },
  "35": {
    "POI": "4e5e96dbd4c08cf7f58fe276",
    "latidude": 40.741503893507,
    "longitude": -73.993272861504,
    "photos": "https:\/\/irs0.4sqi.net\/img\/general\/537x720\/5SPWVRJXXICGPVZE10KSG5VJ1LEAVDJTCX3SLIRC3WYCFSR4.jpg",
    "POI_category_id": "Bars",
    "POI_name": "Bounce Sporting Club"
  },
  "36": {
    "POI": "4b864e7af964a520738531e3",
    "latidude": 40.967786,
    "longitude": -74.073689683333,
    "photos": "https:\/\/irs2.4sqi.net\/img\/general\/720x540\/xKEK5aLjwNp1EH-OjCrx52uOiY3VYyoLfls9aTMgMlI.jpg",
    "POI_category_id": "Food",
    "POI_name": "King Pizza"
  },
  "37": {
    "POI": "4db87c0dfc608240bc2cf251",
    "latidude": 40.73350893644,
    "longitude": -73.993169562376,
    "photos": "https:\/\/irs3.4sqi.net\/img\/general\/612x612\/685510_X8yPDixUPgQGzlyvlpaBTK-oMUFaciUc6F3chPDvDQE.jpg",
    "POI_category_id": "Food",
    "POI_name": "Pop Pub"
  },
  "38": {
    "POI": "4b8f50d9f964a520365133e3",
    "latidude": 40.646098782778,
    "longitude": -73.902668952942,
    "photos": "https:\/\/irs3.4sqi.net\/img\/general\/720x431\/XSNMILF4HAHPJOMFQBCD1TQSZIECSTP4E3QINM4LDGWDKNFO.jpg",
    "POI_category_id": "Food",
    "POI_name": "MTA Subway - Canarsie\/Rockaway Pkwy (L)"
  },
  "39": {
    "POI": "4aedfe24f964a520fbd021e3",
    "latidude": 40.911566682439,
    "longitude": -73.780102729797,
    "photos": "https:\/\/irs2.4sqi.net\/img\/general\/540x720\/7N-R-otHzhMcrA1r4fV7ZONojCItPQedO2NJ0ifrt9c.jpg",
    "POI_category_id": "Food",
    "POI_name": "Buffalo Wild Wings Grill & Bar"
  },
  "40": {
    "POI": "4a61542bf964a5204ec21fe3",
    "latidude": 40.770076823249,
    "longitude": -73.917989730835,
    "photos": "https:\/\/irs3.4sqi.net\/img\/general\/960x720\/1014766_D-lwZ2nKbCAxw7z4q36FiylA7AdN2t2YYMI1CiPBw-g.jpg",
    "POI_category_id": "Food",
    "POI_name": "MTA Subway - Astoria Blvd\/Hoyt Ave (N\/Q)"
  },
  "41": {
    "POI": "4e57a82a227131507c90065d",
    "latidude": 40.687278747559,
    "longitude": -74.095115661621,
    "photos": "https:\/\/irs0.4sqi.net\/img\/general\/640x640\/3762080_HMS5TMxfTHrResNFqoyoXuMmbqVcX5930pMLctZ0X3E.jpg",
    "POI_category_id": "Food",
    "POI_name": "NJT - Danforth Avenue Light Rail Station"
  },
  "42": {
    "POI": "4fe9524ce4b0d971aa120f82",
    "latidude": 40.834097804107,
    "longitude": -73.945267222588,
    "photos": "https:\/\/irs3.4sqi.net\/img\/general\/960x720\/24796219_RxMcIGWlD6frj1Ttes9jk6GOPVygZSggjVg3RPNZWDE.jpg",
    "POI_category_id": "Food",
    "POI_name": "Galaxy  Gourmet Deli"
  },
  "43": {
    "POI": "4b047a25f964a5207d5422e3",
    "latidude": 40.712991036358,
    "longitude": -73.782830492608,
    "photos": "https:\/\/irs1.4sqi.net\/img\/general\/537x720\/W0VAWHX1LVEZQB0LNGZ1ND0QCNVOAHCVNTJB0A0D031CTCQK.jpg",
    "POI_category_id": "Food",
    "POI_name": "MTA Subway - 179th St (F)"
  },
  "44": {
    "POI": "40e35400f964a520e6091fe3",
    "latidude": 40.741437091972,
    "longitude": -73.993244167308,
    "photos": "https:\/\/irs1.4sqi.net\/img\/general\/720x960\/13516703_wPu98Tfh1eRL8G2phFw47erR1-78Dcygfh-UVU94b1U.jpg",
    "POI_category_id": "Arts & Entertainment",
    "POI_name": "SLATE"
  },
  "45": {
    "POI": "4d7d34577498a1cdb4bc8bfc",
    "latidude": 40.758770628772,
    "longitude": -73.918406641326,
    "photos": "https:\/\/irs1.4sqi.net\/img\/general\/406x720\/15457166_sKFi0Ni3Dw5vmxkclVsbs2uXmJqPWRdfjoF6GFbv9bw.jpg",
    "POI_category_id": "Food",
    "POI_name": "The Queens Kickshaw"
  },
  "46": {
    "POI": "4af30de2f964a52026ea21e3",
    "latidude": 40.762098584366,
    "longitude": -73.993995953841,
    "photos": "https:\/\/irs2.4sqi.net\/img\/general\/720x960\/17392_nbT9wkl5-_hXYDidHit5VoYn9floH1vJM3hc0ZifCwc.jpg",
    "POI_category_id": "Food",
    "POI_name": "Clinton Gourmet Market"
  },
  "47": {
    "POI": "421a7600f964a5209d1f1fe3",
    "latidude": 40.773614471585,
    "longitude": -73.964105868252,
    "photos": "https:\/\/irs1.4sqi.net\/img\/general\/720x960\/3254196_DXcT2d-HfePZRV4FELRBfq52yDEnZpcxH7WE0BLDC48.jpg",
    "POI_category_id": "Arts & Entertainment",
    "POI_name": "Whitney Museum of American Art"
  },
  "48": {
    "POI": "4bd3a9b4462cb713a110df07",
    "latidude": 40.672840256446,
    "longitude": -73.870727017063,
    "photos": "Not exists",
    "POI_category_id": "Food",
    "POI_name": "New Ming Fat Chinese Restaurant"
  },
  "49": {
    "POI": "4eebb080c2ee434b71535d86",
    "latidude": 40.823747348954,
    "longitude": -73.939876556396,
    "photos": "https:\/\/irs3.4sqi.net\/img\/general\/640x640\/73114497_aIM4G7qMG87drQv5Vvs1K7OdaHN3NHVeMtOhYCgCGRs.jpg",
    "POI_category_id": "Arts & Entertainment",
    "POI_name": "National Dance Institute"
  },
  "50": {
    "POI": "49dceb2ff964a520be5f1fe3",
    "latidude": 40.747788,
    "longitude": -73.985107,
    "photos": "https:\/\/irs0.4sqi.net\/img\/general\/960x720\/57657779_S0LHc2Ga6lfkasjsddlZwXWYKseTSpttduPh_WeiiGM.jpg",
    "POI_category_id": "Food",
    "POI_name": "Little Italy Pizza"
  },
  "51": {
    "POI": "3fd66200f964a52020e31ee3",
    "latidude": 40.716346648585,
    "longitude": -73.988542556763,
    "photos": "https:\/\/irs2.4sqi.net\/img\/general\/612x612\/V-UHX-6BxE707E_1DNtFEfRPWZftDwaxnlrsPHGqKT4.jpg",
    "POI_category_id": "Food",
    "POI_name": "Doughnut Plant"
  },
  "52": {
    "POI": "4e64fd017d8b85408abf4ba1",
    "latidude": 40.684707167951,
    "longitude": -73.943826409629,
    "photos": "https:\/\/irs2.4sqi.net\/img\/general\/612x612\/2871821_U0sNE-Q52iGifuUFI-szOER2nuxsIJTHodLFwTpMaIs.jpg",
    "POI_category_id": "Food",
    "POI_name": "Guzman Grocery"
  },
  "53": {
    "POI": "4d44de972e326ea872f8e8a6",
    "latidude": 40.704112154317,
    "longitude": -73.948636731325,
    "photos": "https:\/\/irs1.4sqi.net\/img\/general\/612x612\/53491486_ftZSOoz8KonOHBLOwvsBhyEeSIa5rwmkq3TdByKKRjw.jpg",
    "POI_category_id": "Food",
    "POI_name": "Broadway Deli"
  },
  "54": {
    "POI": "4da67357fa8c94f8b84febaa",
    "latidude": 40.669398260946,
    "longitude": -73.902026696006,
    "photos": "https:\/\/irs2.4sqi.net\/img\/general\/720x540\/qc5xPn-7ph6oPcVpp3BoN9oNLAUu9GO-CP4MdoDXWVA.jpg",
    "POI_category_id": "Food",
    "POI_name": "MTA Subway - Sutter Ave (L)"
  },
  "55": {
    "POI": "4aa512c5f964a5205e4720e3",
    "latidude": 40.735005134468,
    "longitude": -73.993261383826,
    "photos": "https:\/\/irs2.4sqi.net\/img\/general\/720x540\/SEFW1BOLY5WIG01OZHKGFBWHA1M2TIESJCKBXJFPXJZO5UED.jpg",
    "POI_category_id": "Food",
    "POI_name": "Joe"
  },
  "56": {
    "POI": "4ad8add6f964a520a61321e3",
    "latidude": 40.735734346424,
    "longitude": -73.990567624569,
    "photos": "https:\/\/irs2.4sqi.net\/img\/general\/720x537\/1O5HITX1GTSYFHJ0UJTJXZEB12OGCTECUSYXFALGJWWLDNVH.jpg",
    "POI_category_id": "Food",
    "POI_name": "MTA Subway - 14th St\/Union Square (L\/N\/Q\/R\/4\/"
  },
  "57": {
    "POI": "4b56856df964a520d21328e3",
    "latidude": 40.790322075371,
    "longitude": -73.947644233704,
    "photos": "https:\/\/irs0.4sqi.net\/img\/general\/720x960\/4897243_ZiFsXKcnwG9jmC4thbYIahajwx52cRl6ZtO9aVRT3lg.jpg",
    "POI_category_id": "Food",
    "POI_name": "MTA Subway - 103rd St (6)"
  },
  "58": {
    "POI": "4b934941f964a5209c3e34e3",
    "latidude": 40.813289549431,
    "longitude": -74.011373519897,
    "photos": "https:\/\/irs2.4sqi.net\/img\/general\/540x540\/34197344_wp2MWRie4QDzEnXdaBSKqiwEcDmpMReJBS7grQW3Zdk.jpg",
    "POI_category_id": "Food",
    "POI_name": "Applebee's"
  },
  "59": {
    "POI": "49ef714cf964a520b6681fe3",
    "latidude": 40.75230027361,
    "longitude": -73.975651860237,
    "photos": "https:\/\/irs2.4sqi.net\/img\/general\/720x537\/p9EZekA2H1PpyUqmp7XuL1eh08iSfoaqhbzd4Zc8OD4.jpg",
    "POI_category_id": "Food",
    "POI_name": "Joe (the art of coffee)"
  },
  "60": {
    "POI": "4fa4a231e4b09571de93b9a7",
    "latidude": 40.759220487652,
    "longitude": -73.988800048828,
    "photos": "https:\/\/irs2.4sqi.net\/img\/general\/612x612\/IV57Y3Tv-m94QKHIqBQJd6X1DLZ9AeVolGJ3XXPQHZ8.jpg",
    "POI_category_id": "Food",
    "POI_name": "Cinco de Mayopocalypse 2012"
  },
  "61": {
    "POI": "423e0e80f964a52046201fe3",
    "latidude": 40.730193071582,
    "longitude": -73.98927284909,
    "photos": "https:\/\/irs0.4sqi.net\/img\/general\/720x537\/-3L7cMArsBXAICj9uOmzR2TTkMzdrtQHcwC95SuA0Uw.jpg",
    "POI_category_id": "Food",
    "POI_name": "Panya Bakery"
  },
  "62": {
    "POI": "4bd1a190b221c9b640d1d5d0",
    "latidude": 40.918020343145,
    "longitude": -73.767828941345,
    "photos": "https:\/\/irs1.4sqi.net\/img\/general\/720x960\/33481175_N2GMVfJ-p8Xx-9WzvSrkQjwFtQ6UuyWDyUKGkBF9mxE.jpg",
    "POI_category_id": "Food",
    "POI_name": "Dunkin' Donuts"
  },
  "63": {
    "POI": "46dda121f964a520924a1fe3",
    "latidude": 40.739649877551,
    "longitude": -74.006953764974,
    "photos": "https:\/\/irs3.4sqi.net\/img\/general\/245x245\/61872983_Wd6ycmxCRMuzdLZTTzNcAITC5b_T1FrLm2kMDYk_LA0.jpg",
    "POI_category_id": "Bars",
    "POI_name": "Revel"
  },
  "64": {
    "POI": "4be9872661aca59346a28200",
    "latidude": 40.747399357311,
    "longitude": -73.983637109067,
    "photos": "https:\/\/irs3.4sqi.net\/img\/general\/640x640\/2668568_-d2TuvpOePxVq5EJREdq7lEyqEKFouHMH__WQcvUeK8.jpg",
    "POI_category_id": "Food",
    "POI_name": "Nanoosh"
  },
  "65": {
    "POI": "4b1e47faf964a5205d1824e3",
    "latidude": 40.752003618857,
    "longitude": -73.975667953491,
    "photos": "https:\/\/irs2.4sqi.net\/img\/general\/540x720\/AJ5s7lmsk4hqy0GZv1RV64OwUs8nqpSPMPyY4eQTscE.jpg",
    "POI_category_id": "Food",
    "POI_name": "Starbucks"
  },
  "66": {
    "POI": "4320d080f964a52090271fe3",
    "latidude": 40.739870998245,
    "longitude": -74.006988195545,
    "photos": "https:\/\/irs0.4sqi.net\/img\/general\/960x720\/69111_bzVZHbPfXhUJmeAU8NwvxFGYQVL7VxsjouwwA4sjW_E.jpg",
    "POI_category_id": "Bars",
    "POI_name": "Cielo"
  },
  "67": {
    "POI": "4ae4ecb7f964a520799f21e3",
    "latidude": 40.905144826928,
    "longitude": -74.031672477722,
    "photos": "https:\/\/irs0.4sqi.net\/img\/general\/720x960\/422341_YcRn3sdu4rWIStDbTR73fwobglQJEoTnW6qHUK6QKUw.jpg",
    "POI_category_id": "Food",
    "POI_name": "The Cheesecake Factory"
  },
  "68": {
    "POI": "49d012ecf964a520fc5a1fe3",
    "latidude": 40.771532064321,
    "longitude": -73.956299705443,
    "photos": "https:\/\/irs2.4sqi.net\/img\/general\/960x720\/410294_SMwEqHcl6a7Y23sFFWuoEoz9Psj2srSJGtPM7V73uoU.jpg",
    "POI_category_id": "Bars",
    "POI_name": "The Stumble Inn"
  },
  "69": {
    "POI": "4acd1704f964a520d0ca20e3",
    "latidude": 40.74282782101,
    "longitude": -74.003832034152,
    "photos": "https:\/\/irs0.4sqi.net\/img\/general\/959x717\/42598424_k4gz5eFfJNeIvuN9pftVNAxdLgjPX4xBKWXath-ts2k.jpg",
    "POI_category_id": "Food",
    "POI_name": "Alaska Food Market"
  },
  "70": {
    "POI": "4f37abaae4b02a70e17f3539",
    "latidude": 40.777254611911,
    "longitude": -73.701493291913,
    "photos": "https:\/\/irs2.4sqi.net\/img\/general\/960x720\/10031636_wdBBMcjxCZBo9AznWCWUKifoT0rxkDZqWdOoVYE9Lcg.jpg",
    "POI_category_id": "Food",
    "POI_name": "Au Bon Pain"
  },
  "71": {
    "POI": "49b15042f964a520d4521fe3",
    "latidude": 40.727612,
    "longitude": -74.007306,
    "photos": "https:\/\/irs3.4sqi.net\/img\/general\/717x959\/47039599_BH7AWqfhmo2kpW1Q1EfERl-SttHMrdLlOaSTTSMOams.jpg",
    "POI_category_id": "Food",
    "POI_name": "Starbucks"
  },
  "72": {
    "POI": "4aff3636f964a520ed3522e3",
    "latidude": 40.587023931933,
    "longitude": -73.95421035537,
    "photos": "https:\/\/irs0.4sqi.net\/img\/general\/720x540\/1566262_Snn7ATXR182XAdDNzVcJYbQ5TSNSicrTo5KKH02NQsA.jpg",
    "POI_category_id": "Food",
    "POI_name": "MTA Subway - Sheepshead Bay (B\/Q)"
  },
  "73": {
    "POI": "4abce119f964a520878720e3",
    "latidude": 40.769076,
    "longitude": -73.984595,
    "photos": "https:\/\/irs1.4sqi.net\/img\/general\/540x720\/33817780_CHHwyY6lpOuM8E-2cgFD3gJDSN-3wiiWiIQSNqpmTkw.jpg",
    "POI_category_id": "Food",
    "POI_name": "Starbucks"
  },
  "74": {
    "POI": "49f35e1ef964a520946a1fe3",
    "latidude": 40.759182621412,
    "longitude": -73.962177316229,
    "photos": "https:\/\/irs2.4sqi.net\/img\/general\/720x540\/QjgZAFOTtYKokyM6SHJESCcSD9cpiw7ZJncWB6BarVw.jpg",
    "POI_category_id": "Bars",
    "POI_name": "The Sin Bin"
  },
  "75": {
    "POI": "4ae5c445f964a520dfa121e3",
    "latidude": 40.753558836251,
    "longitude": -73.974546116912,
    "photos": "https:\/\/irs3.4sqi.net\/img\/general\/720x960\/17137417_xIlu29Ns5WKBPWkRbKPHRnZBJpU0zChYh1TnWuAklIM.jpg",
    "POI_category_id": "Food",
    "POI_name": "Bistro Caterers"
  },
  "76": {
    "POI": "4a3ea31ef964a52030a31fe3",
    "latidude": 40.764346528997,
    "longitude": -73.959387769366,
    "photos": "https:\/\/irs1.4sqi.net\/img\/general\/640x480\/J0RqyKfi4TNKiULnu2JBJ4MkJnuVbKGjAkeLPPswjaQ.jpg",
    "POI_category_id": "Food",
    "POI_name": "Java Girl"
  },
  "77": {
    "POI": "4ae32479f964a520e09021e3",
    "latidude": 40.738230039776,
    "longitude": -73.987832365087,
    "photos": "https:\/\/irs2.4sqi.net\/img\/general\/720x720\/5703819_r6AcjkdM7mA6qjsV6fGDEkiqOEOqlPtnSq1ItFpG7jE.jpg",
    "POI_category_id": "Food",
    "POI_name": "Barbounia"
  },
  "78": {
    "POI": "4ae33a3df964a520f99121e3",
    "latidude": 40.733029,
    "longitude": -73.990038,
    "photos": "https:\/\/irs2.4sqi.net\/img\/general\/720x960\/2668568_x-I4uAvDp3TIfS-mWTBmIamDtVLNOXFfLUhzTe-HHts.jpg",
    "POI_category_id": "Food",
    "POI_name": "Think Coffee"
  },
  "79": {
    "POI": "4bd47db329eb9c74c3ac91e1",
    "latidude": 40.586137977731,
    "longitude": -73.988021752048,
    "photos": "https:\/\/irs0.4sqi.net\/img\/general\/717x960\/26024718_4Cjnrs-wdYWY6TLepyzIi2IqsqOZ6Cu7S5A12zvACnE.jpg",
    "POI_category_id": "Food",
    "POI_name": "Cropsey Bagels"
  },
  "80": {
    "POI": "4a07535af964a5204c731fe3",
    "latidude": 40.755182769741,
    "longitude": -73.978569393101,
    "photos": "https:\/\/irs1.4sqi.net\/img\/general\/540x720\/11690046_nH7F8pa3m6_x-FShkKBHuSBJJs_HVZ-eNhyGVQtln9w.jpg",
    "POI_category_id": "Bars",
    "POI_name": "Eamonn's Bar & Grill"
  },
  "81": {
    "POI": "4bd44b84a8b3a5937e7f6b5f",
    "latidude": 40.813484430335,
    "longitude": -74.074330329895,
    "photos": "https:\/\/irs2.4sqi.net\/img\/general\/720x960\/164194_5i00CmLRVeEKXpB3fNzT5xrCOGlQzxfXQjCka2ZLBMA.jpg",
    "POI_category_id": "Arts & Entertainment",
    "POI_name": "MetLife Stadium"
  },
  "82": {
    "POI": "4ada7675f964a520c92221e3",
    "latidude": 40.773935382728,
    "longitude": -73.954686775096,
    "photos": "https:\/\/irs1.4sqi.net\/img\/general\/720x960\/11684429_Kqz6mwtlzV2gSWhxDpygk-hqu-Pq22UCd7H0YqUGp_M.jpg",
    "POI_category_id": "Food",
    "POI_name": "Cascabel Taqueria"
  },
  "83": {
    "POI": "4f3f1c677beb0c912e6018ae",
    "latidude": 40.733230402839,
    "longitude": -73.987593054771,
    "photos": "https:\/\/irs3.4sqi.net\/img\/general\/540x540\/ljnDZwqe1XZrdvMvUTCfOf1bSs44ZHxnXsUFw_TUx-M.jpg",
    "POI_category_id": "Food",
    "POI_name": "5 Napkin Burger"
  },
  "84": {
    "POI": "48c91543f964a520e4511fe3",
    "latidude": 40.714452010478,
    "longitude": -73.998018822519,
    "photos": "https:\/\/irs3.4sqi.net\/img\/general\/612x612\/1186305_W7CypJlZvIIef7Dpyq2VGuNGpBwX8wXwREjPdgkhlkw.jpg",
    "POI_category_id": "Bars",
    "POI_name": "Apoth\u00e9ke"
  },
  "85": {
    "POI": "4ac0ecf1f964a520019520e3",
    "latidude": 40.760542767958,
    "longitude": -73.96734877682,
    "photos": "https:\/\/irs3.4sqi.net\/img\/general\/960x540\/20162329_jTcOnv7SU51R5uX7M6yauToGjYtulfMah768hqkOrN4.jpg",
    "POI_category_id": "Food",
    "POI_name": "Gigi Cafe"
  },
  "86": {
    "POI": "4ab7a594f964a5204d7a20e3",
    "latidude": 40.886623263359,
    "longitude": -73.878341,
    "photos": "https:\/\/irs2.4sqi.net\/img\/general\/540x720\/5I1XOL31PS4H4SHEH33OKJJRKTVZKKLK4QDILMZ24KZWA3XW.jpg",
    "POI_category_id": "Food",
    "POI_name": "Gary & Gino's Pizzeria"
  },
  "87": {
    "POI": "4f45cd0ee4b04ef91cef1f84",
    "latidude": 40.76004833586,
    "longitude": -73.919221870736,
    "photos": "https:\/\/irs1.4sqi.net\/img\/general\/640x640\/1335106_-JrLbKqKpRRGwccX3T3-PQSxi8866-bA3YdtyDeM7t4.jpg",
    "POI_category_id": "Bars",
    "POI_name": "The Brothel"
  },
  "88": {
    "POI": "4427bd00f964a520b6311fe3",
    "latidude": 40.738113722907,
    "longitude": -74.001967005225,
    "photos": "https:\/\/irs1.4sqi.net\/img\/general\/612x612\/exFhP0o_K3O1xnsA8ksfN-OlfRiJgzz72JL9AAtOmHk.jpg",
    "POI_category_id": "Food",
    "POI_name": "Benny's Burritos"
  },
  "89": {
    "POI": "49dcd96bf964a520b15f1fe3",
    "latidude": 40.748451786563,
    "longitude": -73.985077142715,
    "photos": "https:\/\/irs1.4sqi.net\/img\/general\/612x612\/MKUk3PmcD-zbQ59NYEnzCqmEva-irSQOGVEkprBlUzo.jpg",
    "POI_category_id": "Food",
    "POI_name": "Starbucks"
  },
  "90": {
    "POI": "4a7dff4df964a52091f01fe3",
    "latidude": 40.740557980123,
    "longitude": -74.007779962465,
    "photos": "https:\/\/irs3.4sqi.net\/img\/general\/612x612\/209577_xw9wlKgTJ7C9Au0KQWy2XOguipumpPQHaarSMsEK53g.jpg",
    "POI_category_id": "Bars",
    "POI_name": "The Biergarten at The Standard"
  },
  "91": {
    "POI": "4edd659e5c5c96a201ddd39f",
    "latidude": 40.681540519148,
    "longitude": -73.922695169,
    "photos": "https:\/\/irs0.4sqi.net\/img\/general\/717x959\/14510013_kjYnx2TWj9JziH57BOPIYVkxjLcQ8yfXnwso9_IlbPs.jpg",
    "POI_category_id": "Food",
    "POI_name": "Crown Fried Chicken"
  },
  "92": {
    "POI": "4396cca9f964a520952b1fe3",
    "latidude": 40.752427601876,
    "longitude": -73.994104991338,
    "photos": "https:\/\/irs2.4sqi.net\/img\/general\/960x720\/2791922_2itghBJsFmqyRp2PU0-fb6jk_Ep-JjlT-ycUXmrmAe0.jpg",
    "POI_category_id": "Food",
    "POI_name": "Chipotle Mexican Grill"
  },
  "93": {
    "POI": "4e6a93eb62e1cd1d54c419f7",
    "latidude": 40.830335994649,
    "longitude": -73.871536703048,
    "photos": "https:\/\/irs0.4sqi.net\/img\/general\/720x431\/H1oMcPsS_NKwa2tWIv6e_FvvaZ9OwYqUme4qxIh2ejQ.jpg",
    "POI_category_id": "Food",
    "POI_name": "MTA Subway - 6 Train"
  },
  "94": {
    "POI": "4665447af964a5207f471fe3",
    "latidude": 40.760969400553,
    "longitude": -73.994512446698,
    "photos": "https:\/\/irs2.4sqi.net\/img\/general\/1440x1920\/12404059_bSnXfgvkkRMgxLCjDU40BFppSBCdIo0P3j77AK8-pe0.jpg",
    "POI_category_id": "Food",
    "POI_name": "44 & X"
  },
  "95": {
    "POI": "4cf5cb53c020b60c9bd81c75",
    "latidude": 40.723063261295,
    "longitude": -73.950691223145,
    "photos": "https:\/\/irs0.4sqi.net\/img\/general\/612x612\/449664_xYKGqZ78PIvc3w7H_VQ6v6rQhXF4W5vu_btpYnLHZrY.jpg",
    "POI_category_id": "Bars",
    "POI_name": "No Name Bar"
  },
  "96": {
    "POI": "3fd66200f964a520dcf01ee3",
    "latidude": 40.713397794788,
    "longitude": -73.951150909136,
    "photos": "https:\/\/irs0.4sqi.net\/img\/general\/720x404\/jKGnkh6zdkAsWHTgBonxFzKlQUv2xzasUkYeyPDd16M.jpg",
    "POI_category_id": "Food",
    "POI_name": "DuMont"
  },
  "97": {
    "POI": "4c3c82a417f2ef3bcf1381f4",
    "latidude": 40.672841077323,
    "longitude": -73.870629395123,
    "photos": "https:\/\/irs1.4sqi.net\/img\/general\/717x959\/8378733_oF7y0lfu4IG4oPePGRXx83bLViFYNx8lzLQPdwCVQ-w.jpg",
    "POI_category_id": "Food",
    "POI_name": "Napoli's Pizza"
  },
  "98": {
    "POI": "4e009d3918a8abfb3f6ac5a7",
    "latidude": 40.827239966886,
    "longitude": -73.94570922282,
    "photos": "Not exists",
    "POI_category_id": "Food",
    "POI_name": "1776 Deli Grocery"
  },
  "99": {
    "POI": "4b01eca4f964a520984622e3",
    "latidude": 40.729242792049,
    "longitude": -73.989215459496,
    "photos": "https:\/\/irs2.4sqi.net\/img\/general\/720x537\/kVnmJ4I5rmza44jHvO51XY498ym9IdLioFiQeNA1vDE.jpg",
    "POI_category_id": "Food",
    "POI_name": "Spot Dessert Bar"
  },
  "100": {
    "POI": "3fd66200f964a5202fe41ee3",
    "latidude": 40.724296706947,
    "longitude": -73.98805618602,
    "photos": "https:\/\/irs0.4sqi.net\/img\/general\/720x537\/MvgIXsJeWCTsklfnEBqfDGsJaUIZBqeHG_GZZjgusq0.jpg",
    "POI_category_id": "Bars",
    "POI_name": "d.b.a."
  },
  "101": {
    "POI": "46936ee3f964a520d0481fe3",
    "latidude": 40.717374,
    "longitude": -73.997451,
    "photos": "https:\/\/irs0.4sqi.net\/img\/general\/540x540\/QDUEWME0DY0LUXJJN5JELNCARIDGIM3XZLL2YOBO1H1JTR21.jpg",
    "POI_category_id": "Food",
    "POI_name": "Shanghai Caf\u00e9 Deluxe"
  },
  "102": {
    "POI": "4c833cccd8086dcbdeb87e52",
    "latidude": 40.872623465519,
    "longitude": -73.826757788201,
    "photos": "Not exists",
    "POI_category_id": "Bars",
    "POI_name": "E's Fortress Of Solitude"
  },
  "103": {
    "POI": "412bd680f964a520bc0c1fe3",
    "latidude": 40.729024476001,
    "longitude": -73.988635823634,
    "photos": "https:\/\/irs1.4sqi.net\/img\/general\/406x720\/493652_c2XgHCW3oQ7wSpmySibx7xSHhOqpfffjbVsmGqPp2OI.jpg",
    "POI_category_id": "Food",
    "POI_name": "Taishu-Izakaya Kenka"
  },
  "104": {
    "POI": "4aee747df964a520dcd321e3",
    "latidude": 40.889411889496,
    "longitude": -73.898506164551,
    "photos": "https:\/\/irs3.4sqi.net\/img\/general\/612x612\/F4_4VatRKjtFU80l_4wTW9u8pjLcCdc7oHDpoBpy4sA.jpg",
    "POI_category_id": "Food",
    "POI_name": "MTA Subway - 242nd St\/Van Cortlandt Park (1)"
  },
  "105": {
    "POI": "4b51f650f964a520ae5d27e3",
    "latidude": 40.777740928194,
    "longitude": -73.954703995064,
    "photos": "https:\/\/irs1.4sqi.net\/img\/general\/1919x1440\/2797797_yZiwsTjl91MFncgQJSeRfy7K9Slw9jt3p3DsqKDpW9U.jpg",
    "POI_category_id": "Food",
    "POI_name": "McDonald's"
  },
  "106": {
    "POI": "4bfc3c96d6f2c9b625e74ec8",
    "latidude": 40.709456,
    "longitude": -74.0063757,
    "photos": "https:\/\/irs2.4sqi.net\/img\/general\/405x540\/VEnidU0PY_eFQGwgS5jINmZidHhqzkfY3hc3cPRL8Y8.jpg",
    "POI_category_id": "Food",
    "POI_name": "150 Market"
  },
  "107": {
    "POI": "4cdc016e39172d43b65483d8",
    "latidude": 40.794058065598,
    "longitude": -73.96672889763,
    "photos": "https:\/\/irs0.4sqi.net\/img\/general\/540x960\/12500611_o5znTk12OdXxTG_3RYT3nr3BkKYGECNmBGHUsPlDQb4.jpg",
    "POI_category_id": "Food",
    "POI_name": "Crumbs Bake Shop"
  },
  "108": {
    "POI": "4d1266ff12916dcb8daad58a",
    "latidude": 40.736902765988,
    "longitude": -73.995803672752,
    "photos": "https:\/\/irs2.4sqi.net\/img\/general\/1440x1920\/30094609_1lr5fCjrCZ7pOQ8N_ktLARQBUpJV35FfGGwA5cvQbQE.jpg",
    "POI_category_id": "Food",
    "POI_name": "Bourbon Coffee"
  },
  "109": {
    "POI": "4ebc10798231dffdaf6139c6",
    "latidude": 40.961832939012,
    "longitude": -74.060302212476,
    "photos": "Not exists",
    "POI_category_id": "Arts & Entertainment",
    "POI_name": "Hottest Woman On Earth Hitting On Me"
  },
  "110": {
    "POI": "4bc36e134cdfc9b6c3569721",
    "latidude": 40.766093488505,
    "longitude": -73.983344413367,
    "photos": "https:\/\/irs2.4sqi.net\/img\/general\/720x960\/45963183_pxSYgymgK0_mY3OCE_k-HYmrzjXS19MztItCrNNr2oI.jpg",
    "POI_category_id": "Food",
    "POI_name": "McDonald's"
  },
  "111": {
    "POI": "4800619cf964a520ec4e1fe3",
    "latidude": 40.731844250689,
    "longitude": -73.983864784241,
    "photos": "https:\/\/irs3.4sqi.net\/img\/general\/612x612\/10723_DLRzPhXRouaxSGxa8MtyMFifawdMM9gk6Cfyt2EqzvA.jpg",
    "POI_category_id": "Food",
    "POI_name": "Artichoke Basille\u2019s Pizza & Brewery"
  },
  "112": {
    "POI": "3fd66200f964a5206ceb1ee3",
    "latidude": 40.718041975644,
    "longitude": -73.957579035549,
    "photos": "https:\/\/irs1.4sqi.net\/img\/general\/959x717\/2439138_WSN7eOYob1nXuwmo5selNJegCS5PjT9QT-nB-xY_Y-Y.jpg",
    "POI_category_id": "Bars",
    "POI_name": "Charleston"
  },
  "113": {
    "POI": "4a72eeb8f964a52056db1fe3",
    "latidude": 40.752285553403,
    "longitude": -73.985800747762,
    "photos": "https:\/\/irs3.4sqi.net\/img\/general\/720x720\/9170793_IeJh5az8Wwa9ZeO11hcK59CQE2GQtJ2ylRPuqEe9nsc.jpg",
    "POI_category_id": "Food",
    "POI_name": "Culture Espresso"
  },
  "114": {
    "POI": "3fd66200f964a52008f11ee3",
    "latidude": 40.773007016604,
    "longitude": -73.915886297804,
    "photos": "https:\/\/irs2.4sqi.net\/img\/general\/612x612\/sGHUepENAoxTy_rxiF8vo3PhRPpuZtE2GYIiVvySgX4.jpg",
    "POI_category_id": "Bars",
    "POI_name": "Bohemian Hall & Beer Garden"
  },
  "115": {
    "POI": "43850280f964a520fd2a1fe3",
    "latidude": 40.745675553378,
    "longitude": -74.005679829504,
    "photos": "https:\/\/irs0.4sqi.net\/img\/general\/960x720\/37900636_fG33IA4IUWzdDh7jRP2gOS3DRYuskSHzLvHsu2Dfr5g.jpg",
    "POI_category_id": "Food",
    "POI_name": "Cookshop"
  },
  "116": {
    "POI": "3fd66200f964a520ccf11ee3",
    "latidude": 40.743878976045,
    "longitude": -73.981571012236,
    "photos": "https:\/\/irs0.4sqi.net\/img\/general\/720x720\/50326019_wm6b2BPJaCKj72PWC2V9UAXQovNejsA21BLRNsX5GWw.jpg",
    "POI_category_id": "Food",
    "POI_name": "Penelope"
  },
  "117": {
    "POI": "4b722301f964a52079702de3",
    "latidude": 40.743745519758,
    "longitude": -73.924298286438,
    "photos": "https:\/\/irs3.4sqi.net\/img\/general\/1440x1920\/50302633_z8mEmRdFNiBzUqe6zDzkcgTHrXSKciTdd0aYXzK0eG8.jpg",
    "POI_category_id": "Food",
    "POI_name": "MTA Subway - 40th St\/Lowery St (7)"
  },
  "118": {
    "POI": "4be498c7d4f7c9b6ed622420",
    "latidude": 40.769462399808,
    "longitude": -74.043813872668,
    "photos": "https:\/\/irs1.4sqi.net\/img\/general\/537x720\/92ZXCLauVegkYmOC7GdBYkbTnR5JuUUGc2QjURLCYpQ.jpg",
    "POI_category_id": "Food",
    "POI_name": "Taco Bell"
  },
  "119": {
    "POI": "3fd66200f964a520cce51ee3",
    "latidude": 40.745147993871,
    "longitude": -73.998110641646,
    "photos": "https:\/\/irs2.4sqi.net\/img\/general\/612x612\/37560_b603bL9EAVpXHeHplze7YtfawiBQbasqxy01CROoUwY.jpg",
    "POI_category_id": "Bars",
    "POI_name": "Trailer Park Lounge & Grill"
  },
  "120": {
    "POI": "41005500f964a5204e0b1fe3",
    "latidude": 40.666674206504,
    "longitude": -73.988170965885,
    "photos": "https:\/\/irs3.4sqi.net\/img\/general\/640x640\/3772339_CF3Lc6jORgoBOXc6vgq3G2GzkL5IA_yALM9HDN7ec9M.jpg",
    "POI_category_id": "Bars",
    "POI_name": "Lucky 13 Saloon"
  },
  "121": {
    "POI": "4d55435a611aa35d29c23239",
    "latidude": 40.810108606352,
    "longitude": -73.803505735939,
    "photos": "https:\/\/irs2.4sqi.net\/img\/general\/640x640\/42039_zjQ-6wjQrZ11JQkhob2gfougMe1EvuTji58O00AnD5g.jpg",
    "POI_category_id": "Bars",
    "POI_name": "Paddy's On The Bay"
  },
  "122": {
    "POI": "3fd66200f964a5206de71ee3",
    "latidude": 40.751873578,
    "longitude": -73.974080085754,
    "photos": "https:\/\/irs3.4sqi.net\/img\/general\/540x720\/20741330_Pslk9hNXghFduCSzXqD9wg2-A9rWOSMJT0gqQGVCrAM.jpg",
    "POI_category_id": "Food",
    "POI_name": "Cosi"
  },
  "123": {
    "POI": "4c2526b1c11dc9b6d6b42624",
    "latidude": 40.800878405571,
    "longitude": -74.154136776924,
    "photos": "https:\/\/irs3.4sqi.net\/img\/general\/720x960\/46507067_zZ1aIXvR7xpn8iqT9PKgGvIW0xnuKFBMG8z79wRqpMk.jpg",
    "POI_category_id": "Food",
    "POI_name": "Algieris pizza"
  },
  "124": {
    "POI": "4c6f2ad5d7fab1f716c25ac9",
    "latidude": 40.729853195259,
    "longitude": -73.980807698621,
    "photos": "https:\/\/irs3.4sqi.net\/img\/general\/612x612\/27850_FXmQWg-pceXm6EFOsAScGZ5b9x2_vkAfqBebxUjyyeM.jpg",
    "POI_category_id": "Bars",
    "POI_name": "Fat Buddha"
  },
  "125": {
    "POI": "4f34533f754a657ca23ac8d7",
    "latidude": 40.747695880149,
    "longitude": -73.994443416595,
    "photos": "https:\/\/irs1.4sqi.net\/img\/general\/720x540\/CAYH_tm1YYN6DCu5_ZmaTmc2SeOAOmXAjzLnczyW5tw.jpg",
    "POI_category_id": "Bars",
    "POI_name": "Smithfield NYC"
  },
  "126": {
    "POI": "4f2e153ee4b03caf538a8607",
    "latidude": 40.729047468707,
    "longitude": -74.000322818756,
    "photos": "https:\/\/irs2.4sqi.net\/img\/general\/612x612\/28822919_tP_XX0bs-g-HmeStoSrpZRjQSCymba_hkQq99vUjcHA.jpg",
    "POI_category_id": "Bars",
    "POI_name": "206 Lounge"
  },
  "127": {
    "POI": "4adcde8af964a520196221e3",
    "latidude": 40.748572,
    "longitude": -73.9924751,
    "photos": "https:\/\/irs0.4sqi.net\/img\/general\/960x720\/10337167_Ph-cKKcmjRX5yhjUoJWWpPmK0cyS8hj2g9OR6tqtq-Q.jpg",
    "POI_category_id": "Food",
    "POI_name": "Fresh & Co"
  },
  "128": {
    "POI": "458976f5f964a520dd3f1fe3",
    "latidude": 40.762894097934,
    "longitude": -73.984388933234,
    "photos": "https:\/\/irs1.4sqi.net\/img\/general\/612x612\/9279039_rYFQkZK2bSb6ngzDtE4wNhqbicoH0AsT4Hh4sf5_Ogk.jpg",
    "POI_category_id": "Food",
    "POI_name": "Victor's Caf\u00e9"
  },
  "129": {
    "POI": "3fd66200f964a52093ea1ee3",
    "latidude": 40.719209382316,
    "longitude": -73.996871079722,
    "photos": "https:\/\/irs2.4sqi.net\/img\/general\/718x540\/18412379_v-vorTcHzkJNVj57FCivZvTVaMbqQ7k0LItAWQcsrfw.jpg",
    "POI_category_id": "Food",
    "POI_name": "Nyonya"
  },
  "130": {
    "POI": "4be57840910020a19af8d214",
    "latidude": 40.940589920788,
    "longitude": -73.99310069626,
    "photos": "https:\/\/irs0.4sqi.net\/img\/general\/540x720\/NOCB0K01XGYWKM4FOR3KQV0U4JPYKALVMLLKVSXHU2501THV.jpg",
    "POI_category_id": "Food",
    "POI_name": "Dunkin' Donuts"
  },
  "131": {
    "POI": "4b2ab78ff964a5204aae24e3",
    "latidude": 40.867610990885,
    "longitude": -73.897249670384,
    "photos": "https:\/\/irs0.4sqi.net\/img\/general\/612x612\/zdDSmeZr8lge1cqsUZ6GCLYIeJa04fMqta8GnH4Ln0A.jpg",
    "POI_category_id": "Food",
    "POI_name": "MTA Subway - Kingsbridge Rd (4)"
  },
  "132": {
    "POI": "4a809c7df964a520b2f51fe3",
    "latidude": 40.727033346328,
    "longitude": -73.995212579238,
    "photos": "https:\/\/irs3.4sqi.net\/img\/general\/540x720\/ngj8W5w14Bgmn7xdMUWEyae0MgcVAfjwL1wWnjHqpp0.jpg",
    "POI_category_id": "Food",
    "POI_name": "Starbucks"
  },
  "133": {
    "POI": "4fccfed41081ba9a64ce9613",
    "latidude": 40.734714082086,
    "longitude": -73.99995803833,
    "photos": "https:\/\/irs1.4sqi.net\/img\/general\/960x720\/5843969_p61q-Ge9-klj4CKMD9s4dfA6JDm9zNIWmg47lrA-BeU.jpg",
    "POI_category_id": "Food",
    "POI_name": "Rosemary\u2019s"
  },
  "134": {
    "POI": "49d36ca4f964a520f75b1fe3",
    "latidude": 40.726860368337,
    "longitude": -73.980259895325,
    "photos": "https:\/\/irs3.4sqi.net\/img\/general\/537x720\/UN5X4SSOAYTK0UOTO2NQBYWX4UV5JCTY3XDTB3TQWWO3JXPQ.jpg",
    "POI_category_id": "Food",
    "POI_name": "Ninth Street Espresso"
  },
  "135": {
    "POI": "4c00ac9fdf6c0f478cd28b22",
    "latidude": 40.771084357274,
    "longitude": -73.9080119133,
    "photos": "https:\/\/irs3.4sqi.net\/img\/general\/720x540\/JWZCAgIWQ7C_a69pPmYTkACRmW_HP4kx-ljXg3Sz1D0.jpg",
    "POI_category_id": "Bars",
    "POI_name": "Teal"
  },
  "136": {
    "POI": "4a43b04ff964a520afa61fe3",
    "latidude": 40.755343816108,
    "longitude": -73.987034642204,
    "photos": "https:\/\/irs0.4sqi.net\/img\/general\/720x537\/11875289_alPyc9IjHnfFbC0FJJlJ8nkcD_okysCSvRQkWarZDmM.jpg",
    "POI_category_id": "Food",
    "POI_name": "Ruby Tuesday"
  },
  "137": {
    "POI": "4cbb5d9fcdccb71341b16e79",
    "latidude": 40.74010129414,
    "longitude": -73.992067701551,
    "photos": "https:\/\/irs1.4sqi.net\/img\/general\/540x960\/11989115_9Q4cEePgUma52WGcHzz0LZGiiuwOHzUzTRGrD4pcl-U.jpg",
    "POI_category_id": "Food",
    "POI_name": "Face to Face NYC"
  },
  "138": {
    "POI": "4c1918c7fe5a76b07b0f0315",
    "latidude": 40.779126065706,
    "longitude": -73.954904894578,
    "photos": "https:\/\/irs0.4sqi.net\/img\/general\/612x612\/11845309_76f2wnKJk6rhc6Iq5ptuOcMeXzRUoZa2THc9C8KATCs.jpg",
    "POI_category_id": "Food",
    "POI_name": "Shake Shack"
  },
  "139": {
    "POI": "4cc35db6d43ba14387a35ff8",
    "latidude": 40.720363687279,
    "longitude": -73.987083435059,
    "photos": "https:\/\/irs0.4sqi.net\/img\/general\/720x960\/49928682_OOBBWGA-_7Jltjt6l1AUibZ_6QNdOlTOeuNlhHh2yvU.jpg",
    "POI_category_id": "Bars",
    "POI_name": "Beauty & Essex"
  },
  "140": {
    "POI": "4b6caaddf964a520ac4a2ce3",
    "latidude": 40.721144298246,
    "longitude": -73.956956863403,
    "photos": "https:\/\/irs1.4sqi.net\/img\/general\/612x612\/31663087_iKhHK-rrO1qX_IQmw7GoHR-vXWsNO34eW4m5vz10HH0.jpg",
    "POI_category_id": "Bars",
    "POI_name": "The Whiskey Brooklyn"
  },
  "141": {
    "POI": "43125000f964a52058271fe3",
    "latidude": 40.726757989609,
    "longitude": -73.999560956576,
    "photos": "https:\/\/irs3.4sqi.net\/img\/general\/612x612\/0xizMPvb7OffX3Dc9xr79LOP-HD-7gTtYGkmzYj94T4.jpg",
    "POI_category_id": "Bars",
    "POI_name": "Pegu Club"
  },
  "142": {
    "POI": "4c50bb26250dd13adf2a0a7c",
    "latidude": 40.878283037798,
    "longitude": -74.158980846405,
    "photos": "https:\/\/irs0.4sqi.net\/img\/general\/720x960\/3620378_E3ET7OlddqklHMIof03kwWKudLAolnFjSuG1f_-0UJ0.jpg",
    "POI_category_id": "Arts & Entertainment",
    "POI_name": "Non-Productive Studios"
  },
  "143": {
    "POI": "4b3fcc64f964a5200baf25e3",
    "latidude": 40.702993884988,
    "longitude": -73.799823528276,
    "photos": "https:\/\/irs1.4sqi.net\/img\/general\/540x720\/8mQAQ7W-VN_Hr3orkQFA02i0w3iEEMnFsnz4jObiPS4.jpg",
    "POI_category_id": "Arts & Entertainment",
    "POI_name": "Jamaica Multiplex"
  },
  "144": {
    "POI": "3fd66200f964a52009e61ee3",
    "latidude": 40.721941345858,
    "longitude": -73.996258962364,
    "photos": "https:\/\/irs3.4sqi.net\/img\/general\/720x540\/oRGl5AEp_ZZ7KOYpQAZiR5rESPH7m7eXWpenUMdseSI.jpg",
    "POI_category_id": "Bars",
    "POI_name": "Spring Lounge"
  },
  "145": {
    "POI": "4ed7f1b3f5b915cfe2dd4436",
    "latidude": 40.727388294838,
    "longitude": -74.007097225644,
    "photos": "https:\/\/irs2.4sqi.net\/img\/general\/612x612\/Cjleo52x6oLGuCx2E7gyh9SraPf5pU1sfpcPYoBczeQ.jpg",
    "POI_category_id": "Food",
    "POI_name": "Pret A Manger"
  },
  "146": {
    "POI": "4b3a4910f964a520d16325e3",
    "latidude": 40.752718839024,
    "longitude": -73.909707069397,
    "photos": "https:\/\/irs3.4sqi.net\/img\/general\/406x720\/U9sguf14hUbY8Wj_Ttb5iUDkXtEDGRHX6_T92zcTGz8.jpg",
    "POI_category_id": "Food",
    "POI_name": "Starbucks"
  },
  "147": {
    "POI": "4750accef964a520b24c1fe3",
    "latidude": 40.722338469866,
    "longitude": -73.99329007802,
    "photos": "https:\/\/irs1.4sqi.net\/img\/general\/402x720\/1406090_eHh4lKm71VFDg7e9eGMFLniH2Xo5BrCnXK9JcTGl2Ho.jpg",
    "POI_category_id": "Arts & Entertainment",
    "POI_name": "New Museum"
  },
  "148": {
    "POI": "4b606b18f964a520c7e429e3",
    "latidude": 40.829669161347,
    "longitude": -74.137045250861,
    "photos": "https:\/\/irs1.4sqi.net\/img\/general\/720x960\/49544507_OaV1vo1WroZ4UBSYuO-ST7SwmpZbZow6GTkZEAN8x0c.jpg",
    "POI_category_id": "Food",
    "POI_name": "Starbucks"
  },
  "149": {
    "POI": "4a19aaebf964a520307a1fe3",
    "latidude": 40.758114744319,
    "longitude": -73.829639777541,
    "photos": "https:\/\/irs1.4sqi.net\/img\/general\/540x540\/C81BtLUrnFA62HV_eaoQ8BfmJXJWClxF2XFruhagvRI.jpg",
    "POI_category_id": "Food",
    "POI_name": "Starbucks"
  },
  "150": {
    "POI": "4a478d19f964a520d2a91fe3",
    "latidude": 40.64440554205,
    "longitude": -74.072957038879,
    "photos": "https:\/\/irs3.4sqi.net\/img\/general\/612x612\/d32ZMtlms1XwKKHZpxKqhmyd9GyYmiTavtx2n_H9bJs.jpg",
    "POI_category_id": "Food",
    "POI_name": "Staten Island Ferry - St. George Terminal"
  },
  "151": {
    "POI": "3fd66200f964a52098e51ee3",
    "latidude": 40.73644,
    "longitude": -73.99734223,
    "photos": "https:\/\/irs2.4sqi.net\/img\/general\/540x720\/7638585_91I2JuEmGztkGeT4hE1M1X4cPbALGvj86lfc-UjHnMM.jpg",
    "POI_category_id": "Food",
    "POI_name": "Murray's Bagels"
  },
  "152": {
    "POI": "4bcb13850687ef3b3af4dccc",
    "latidude": 40.7558315223,
    "longitude": -73.964777413089,
    "photos": "https:\/\/irs1.4sqi.net\/img\/general\/720x537\/yzLoXazcihw9fVuCB0IfIc0nF3ZuJUhjJtPxIBKNOAQ.jpg",
    "POI_category_id": "Food",
    "POI_name": "Madison Restaurant"
  },
  "153": {
    "POI": "4b7ffc10f964a520a74830e3",
    "latidude": 40.9063457175,
    "longitude": -74.129854074209,
    "photos": "https:\/\/irs2.4sqi.net\/img\/general\/540x720\/22018950_BEKIg7Wfpvbp62t_4WyF9nKnxCClfKSGKbBKe8y4C44.jpg",
    "POI_category_id": "Food",
    "POI_name": "Riverview East"
  },
  "154": {
    "POI": "3fd66200f964a52073e81ee3",
    "latidude": 40.7761672,
    "longitude": -73.9561516,
    "photos": "https:\/\/irs0.4sqi.net\/img\/general\/540x720\/20868573_Vn-8AJQ44xvK-pid9kITBLvkfV2Cu-hCRw9Ev58fbFw.jpg",
    "POI_category_id": "Bars",
    "POI_name": "Mad River Bar & Grille"
  },
  "155": {
    "POI": "49caa5a0f964a520d0581fe3",
    "latidude": 40.743043185247,
    "longitude": -73.980228037384,
    "photos": "https:\/\/irs2.4sqi.net\/img\/general\/720x960\/170480_tAhKpOWje7EsnuOV5yBg8svqSQ5SeByiiQLzU3mBdw8.jpg",
    "POI_category_id": "Bars",
    "POI_name": "The Hill"
  },
  "156": {
    "POI": "4d7511de170ab1f70edcfc94",
    "latidude": 40.777871349255,
    "longitude": -73.954761394947,
    "photos": "https:\/\/irs2.4sqi.net\/img\/general\/720x960\/25018106_RqUuJ0onXawyyv6W7xHzlYY2yUuoRPcoAJU-4Ub4qYU.jpg",
    "POI_category_id": "Food",
    "POI_name": "Chipotle Mexican Grill"
  },
  "157": {
    "POI": "4ad778a8f964a520030b21e3",
    "latidude": 40.738305039955,
    "longitude": -73.993008874734,
    "photos": "https:\/\/irs0.4sqi.net\/img\/general\/720x960\/1671596_WVDJZLgovpurkwNrYUCgfa3ZuMB9FrePOetGhG2skc0.jpg",
    "POI_category_id": "Bars",
    "POI_name": "Rye House"
  },
  "158": {
    "POI": "4b709d01f964a5204c252de3",
    "latidude": 40.721545124765,
    "longitude": -73.988842426716,
    "photos": "https:\/\/irs2.4sqi.net\/img\/general\/532x382\/696351_3niFzz0MFojefxWjxrNbK_0-CyXNpb_-TfvfDBTER5w.png",
    "POI_category_id": "Food",
    "POI_name": "The Meatball Shop"
  },
  "159": {
    "POI": "4ab26682f964a520106b20e3",
    "latidude": 40.752548162183,
    "longitude": -73.992995023727,
    "photos": "https:\/\/irs3.4sqi.net\/img\/general\/537x720\/tLb9EILBWfc-PJg1SSFmfQYVDWwXQy419peBbZlf-O0.jpg",
    "POI_category_id": "Food",
    "POI_name": "Starbucks"
  },
  "160": {
    "POI": "4aa88b91f964a520915120e3",
    "latidude": 40.729751,
    "longitude": -73.9987545,
    "photos": "https:\/\/irs3.4sqi.net\/img\/general\/720x540\/10251237_je9nHhqvk6ZIlL2M9ZIax12mgnEUccMyMytqFo2lKDo.jpg",
    "POI_category_id": "Bars",
    "POI_name": "Amity Hall"
  },
  "161": {
    "POI": "4a0f1baef964a52026761fe3",
    "latidude": 40.586060207052,
    "longitude": -73.929834365845,
    "photos": "https:\/\/irs0.4sqi.net\/img\/general\/431x720\/Udiv2lHODg20sdTm3Ia1YiUX8E5EAJG4ara9O94vupI.jpg",
    "POI_category_id": "Arts & Entertainment",
    "POI_name": "United Artists Sheepshead Bay 14 IMAX & RPX"
  },
  "162": {
    "POI": "4c94be6cefecb713958ae09d",
    "latidude": 40.750605666316,
    "longitude": -73.985323905945,
    "photos": "https:\/\/irs3.4sqi.net\/img\/general\/640x640\/3358163_aU0WAxgo496_oKvDdtSz0hUR9zCl_pfcdUx14PAU67M.jpg",
    "POI_category_id": "Bars",
    "POI_name": "District 36"
  },
  "163": {
    "POI": "4e57cc89b0fb4c4d61f5cd69",
    "latidude": 40.713236458457,
    "longitude": -74.009151570637,
    "photos": "https:\/\/irs2.4sqi.net\/img\/general\/720x540\/QJO22Q0JWG4IYJ4R4F520DQ2PACHTZ30C31BM1GUTC0EWARN.jpg",
    "POI_category_id": "Food",
    "POI_name": "Pret A Manger"
  },
  "164": {
    "POI": "4bb751a3f562ef3baf3a3197",
    "latidude": 40.740825087949,
    "longitude": -73.987407678497,
    "photos": "https:\/\/irs2.4sqi.net\/img\/general\/720x960\/683911_BUHaAsGEK-SIxzZzaJxee8yQPyNE882y89mv7BI8jB8.jpg",
    "POI_category_id": "Food",
    "POI_name": "Subway"
  },
  "165": {
    "POI": "4ab8121ef964a520117c20e3",
    "latidude": 40.719222,
    "longitude": -73.990248,
    "photos": "https:\/\/irs0.4sqi.net\/img\/general\/612x612\/8240468_4aVdnSU8F3gH2p9at8LnnMHrfILFB_d6pSOI611w98k.jpg",
    "POI_category_id": "Food",
    "POI_name": "Starbucks"
  },
  "166": {
    "POI": "4a81ae64f964a5203ff71fe3",
    "latidude": 40.743527,
    "longitude": -73.973873,
    "photos": "https:\/\/irs0.4sqi.net\/img\/general\/960x720\/24674083_JLFP5pgiMdf6gZR_sjQVg84aqKI5TvY021o5xtfTCNY.jpg",
    "POI_category_id": "Food",
    "POI_name": "NY Bagels & Cafe"
  },
  "167": {
    "POI": "4b521c6cf964a520be6827e3",
    "latidude": 40.824774703394,
    "longitude": -73.944216296959,
    "photos": "https:\/\/irs2.4sqi.net\/img\/general\/540x720\/18435166_j6urqC5zqllRb-23lR6inYQTrKxjXOs22pGUW9x9P40.jpg",
    "POI_category_id": "Food",
    "POI_name": "MTA Subway - 145th St (A\/B\/C\/D)"
  },
  "168": {
    "POI": "4b897be0f964a520bb3a32e3",
    "latidude": 40.728539654511,
    "longitude": -74.046550554328,
    "photos": "https:\/\/irs0.4sqi.net\/img\/general\/431x720\/HHYPG5TZQQST4M3GJWOM3FYKGSVU1N3UCAY4UDYIWWZTPUK2.jpg",
    "POI_category_id": "Food",
    "POI_name": "9th and Coles Tavern"
  },
  "169": {
    "POI": "4a718a5af964a52041d91fe3",
    "latidude": 40.715549717358,
    "longitude": -74.009007811546,
    "photos": "https:\/\/irs3.4sqi.net\/img\/general\/720x404\/ERMHTKN4JBP303N4SVXN1MZQAQR1TQNH4YI5WRXZ5ZBIPJU0.jpg",
    "POI_category_id": "Food",
    "POI_name": "Starbucks"
  },
  "170": {
    "POI": "4a58ae56f964a520a8b71fe3",
    "latidude": 40.633613,
    "longitude": -74.014332,
    "photos": "https:\/\/irs0.4sqi.net\/img\/general\/960x720\/32122805_lJwtFD666M0TYL9Gpgf3lF4zZ_7Vtra4bBt9y8w23nY.jpg",
    "POI_category_id": "Food",
    "POI_name": "East Harbor Seafood Palace (?????)"
  },
  "171": {
    "POI": "4af841f6f964a520b00b22e3",
    "latidude": 40.741893641843,
    "longitude": -73.990294380994,
    "photos": "https:\/\/irs1.4sqi.net\/img\/general\/720x960\/810485_SqNkzoJ3rkqNg1ZeE59FLucNitnsQ8u7QAMmA5FSiNk.jpg",
    "POI_category_id": "Food",
    "POI_name": "Energy Kitchen"
  },
  "172": {
    "POI": "4be314e8f07b0f476209f743",
    "latidude": 40.780198574066,
    "longitude": -74.175405340217,
    "photos": "https:\/\/irs3.4sqi.net\/img\/general\/405x720\/27436326_F4e8rsecshCrpf5me08SI2LnuXrmz1M_Ox0JqTV3Y1U.jpg",
    "POI_category_id": "Food",
    "POI_name": "Dunkin Donuts"
  },
  "173": {
    "POI": "4b1be8cef964a520defe23e3",
    "latidude": 40.972154374214,
    "longitude": -73.960905075073,
    "photos": "https:\/\/irs3.4sqi.net\/img\/general\/540x720\/sUMHn4y4p2x8ddmyf9BCQ9fOmT_SXdVqJ2OTpKuMc3g.jpg",
    "POI_category_id": "Food",
    "POI_name": "Starbucks"
  },
  "174": {
    "POI": "4c66f1e5aebea5935aab74d0",
    "latidude": 40.730098736096,
    "longitude": -73.861452716027,
    "photos": "https:\/\/irs0.4sqi.net\/img\/general\/717x959\/34329552_BdtyDR8cZuSN3HMj1P88msSz0QRR6GMLPQHcjqhL-5o.jpg",
    "POI_category_id": "Food",
    "POI_name": "MTA Subway - 63rd Dr\/Rego Park (M\/R)"
  },
  "175": {
    "POI": "4d8512acd5fab60c65eaef9b",
    "latidude": 40.672826755321,
    "longitude": -73.990859985352,
    "photos": "https:\/\/irs1.4sqi.net\/img\/general\/612x612\/1856128_gPDfLHH79NY6ynuYiivW1wMX6fqHh_OjZ13onPhbxns.jpg",
    "POI_category_id": "Food",
    "POI_name": "MTA Subway - F Train"
  },
  "176": {
    "POI": "4edd8695b6344371fa9a73cd",
    "latidude": 40.736475480037,
    "longitude": -73.997548248804,
    "photos": "https:\/\/irs2.4sqi.net\/img\/general\/540x685\/okaAeXRjmieYQgHG6ksZeWu5PFTcYy0WKgvv6CPDPcM.jpg",
    "POI_category_id": "Food",
    "POI_name": "16 Handles"
  },
  "177": {
    "POI": "4a7e033df964a5209ff01fe3",
    "latidude": 40.793408690381,
    "longitude": -74.256055355072,
    "photos": "https:\/\/irs1.4sqi.net\/img\/general\/402x540\/HMKdjn_rVFO1vcwqY_Zzl32Is6mRHGRyCM_Z9G7m4Hc.jpg",
    "POI_category_id": "Arts & Entertainment",
    "POI_name": "AMC Dine-in Theatres Essex Green 9"
  },
  "178": {
    "POI": "4a749103f964a520a2de1fe3",
    "latidude": 40.737144805618,
    "longitude": -73.990205526352,
    "photos": "https:\/\/irs0.4sqi.net\/img\/general\/720x960\/59373434_h9Zqvga_F9W4MXuFaZtPP5GOaX0Rfy8WpxGV7H4o3v0.jpg",
    "POI_category_id": "Food",
    "POI_name": "Chipotle Mexican Grill"
  },
  "179": {
    "POI": "49bebdfbf964a520d4541fe3",
    "latidude": 40.725836918895,
    "longitude": -73.994805514812,
    "photos": "https:\/\/irs0.4sqi.net\/img\/general\/720x540\/BNO5DWNJCP53JKA1K14NM0O1UJYUZ01AE33RUCUNBKDYR5WR.jpg",
    "POI_category_id": "Food",
    "POI_name": "Pinche Taqueria"
  },
  "180": {
    "POI": "4c5cdf567735c9b619c38d72",
    "latidude": 40.576891105323,
    "longitude": -73.981921102429,
    "photos": "https:\/\/irs1.4sqi.net\/img\/general\/545x540\/eieIYau0JyhvwU3XfDY2Vma6dT0vfaDq-0yOx_vWe5c.jpg",
    "POI_category_id": "Food",
    "POI_name": "Island Food Court"
  },
  "181": {
    "POI": "3fd66200f964a52096eb1ee3",
    "latidude": 40.745547579506,
    "longitude": -73.947236124941,
    "photos": "https:\/\/irs1.4sqi.net\/img\/general\/720x960\/7266582_0ZJiNbjfABFuI2iAAe6JsqNSGQ6AadunEADMIp6EvYo.jpg",
    "POI_category_id": "Arts & Entertainment",
    "POI_name": "MoMA PS1 Contemporary Art Center"
  },
  "182": {
    "POI": "4b28f330f964a5207c9624e3",
    "latidude": 40.754856326167,
    "longitude": -73.985978364944,
    "photos": "https:\/\/irs1.4sqi.net\/img\/general\/720x540\/G7RTgx8-JGq0gKKxEUHQr4z-EiVPgLc_tY4YiZ-OKko.jpg",
    "POI_category_id": "Bars",
    "POI_name": "Pulse Karaoke"
  },
  "183": {
    "POI": "507a100fe4b08ed647ed098b",
    "latidude": 40.663762198592,
    "longitude": -73.947172982611,
    "photos": "Not exists",
    "POI_category_id": "Bars",
    "POI_name": "Nora's house"
  },
  "184": {
    "POI": "448acb74f964a52048341fe3",
    "latidude": 40.711295,
    "longitude": -73.961444,
    "photos": "https:\/\/irs2.4sqi.net\/img\/general\/540x720\/2098410_fRP9WfWy7QE3eeaug6iZ00CWmgXGTBuEqK1hmNgU6hg.jpg",
    "POI_category_id": "Food",
    "POI_name": "Pies 'n' Thighs"
  },
  "185": {
    "POI": "4b5752f9f964a5206d3128e3",
    "latidude": 40.681098,
    "longitude": -73.97596,
    "photos": "https:\/\/irs1.4sqi.net\/img\/general\/540x720\/91Gm1oX3b__F695azyU3uS37A4Q18h6lWJkv3ez1O9o.jpg",
    "POI_category_id": "Food",
    "POI_name": "Sun In Bloom"
  },
  "186": {
    "POI": "4a98966ff964a520d42c20e3",
    "latidude": 40.766696597501,
    "longitude": -73.92148733139,
    "photos": "https:\/\/irs0.4sqi.net\/img\/general\/612x612\/7R_iTE4HDHuQ0-XwDRVKPToJesV4BqKSAwENU2dkzPM.jpg",
    "POI_category_id": "Food",
    "POI_name": "MTA Subway - 30th Ave (N\/Q)"
  },
  "187": {
    "POI": "42474900f964a52081201fe3",
    "latidude": 40.765263848749,
    "longitude": -73.987545414792,
    "photos": "https:\/\/irs2.4sqi.net\/img\/general\/1440x1920\/12989884_fm6I2ne_Q6yKJh4iZSi70j8rkY6PKFLx5c-z9viL3hk.jpg",
    "POI_category_id": "Food",
    "POI_name": "Eatery"
  },
  "188": {
    "POI": "4b9fa9bcf964a520c53237e3",
    "latidude": 40.759236740977,
    "longitude": -73.953394889832,
    "photos": "https:\/\/irs1.4sqi.net\/img\/general\/640x640\/64457247_lLfNifak1ez30vTlafc-Jp6FTufLIehvG9jdECtaaOw.jpg",
    "POI_category_id": "Food",
    "POI_name": "MTA Subway - Roosevelt Island (F)"
  },
  "189": {
    "POI": "4e66c4076365d0e711e5711d",
    "latidude": 40.742131982025,
    "longitude": -74.003517329693,
    "photos": "https:\/\/irs3.4sqi.net\/img\/general\/612x612\/172487_NyFPlcG6J5gwXl1HxWpDhQ1R27ZC359qs3390M0NtLs.jpg",
    "POI_category_id": "Bars",
    "POI_name": "Electric Room"
  },
  "190": {
    "POI": "45ebc982f964a52091431fe3",
    "latidude": 40.730372172664,
    "longitude": -74.00198422096,
    "photos": "https:\/\/irs3.4sqi.net\/img\/general\/960x720\/114449_TdllPNu0eaFpxwU60JLX4vhfvKdf5uPLhrh69sjazlY.jpg",
    "POI_category_id": "Food",
    "POI_name": "Joe's Pizza"
  },
  "191": {
    "POI": "49c180edf964a520af551fe3",
    "latidude": 40.726376135473,
    "longitude": -74.005530629299,
    "photos": "https:\/\/irs2.4sqi.net\/img\/general\/537x720\/N1BPNMUJMSMGYQBE1J25BGJ114EIU3C45CG5CM3SRSWOU2TI.jpg",
    "POI_category_id": "Bars",
    "POI_name": "Greenhouse"
  },
  "192": {
    "POI": "4a819c70f964a52006f71fe3",
    "latidude": 40.779348961273,
    "longitude": -73.947781444206,
    "photos": "https:\/\/irs1.4sqi.net\/img\/general\/540x720\/w-9kimcxjqWnL24fxY6cv4OY-w0k_fc3PqDeIwYJVUk.jpg",
    "POI_category_id": "Food",
    "POI_name": "Starbucks"
  },
  "193": {
    "POI": "4ac7a552f964a520c2b820e3",
    "latidude": 40.761627328776,
    "longitude": -73.990334553486,
    "photos": "https:\/\/irs2.4sqi.net\/img\/general\/540x540\/932041_Kf-Gjw28lRnowFw2wN3cBTPCI4K1eWHPRG5NAbJ3HVs.jpg",
    "POI_category_id": "Food",
    "POI_name": "Starbucks"
  },
  "194": {
    "POI": "4c138eb6f1e0b7136cab34bc",
    "latidude": 40.719940852516,
    "longitude": -73.951292037964,
    "photos": "https:\/\/irs3.4sqi.net\/img\/general\/720x540\/D1Gdmuo08EqydsDzjLCg-DjvJUa0bIfLKZxoeAaIb4M.jpg",
    "POI_category_id": "Arts & Entertainment",
    "POI_name": "McCarren Park Track"
  },
  "195": {
    "POI": "4b71f6c5f964a52010672de3",
    "latidude": 40.612287,
    "longitude": -74.1324905,
    "photos": "https:\/\/irs1.4sqi.net\/img\/general\/540x720\/S3ZHZHBW23MHS4HQBIB4JFFVOIL1UREAIEJT4TKNS01522P4.jpg",
    "POI_category_id": "Food",
    "POI_name": "Starbucks"
  },
  "196": {
    "POI": "4a732ac9f964a520b9db1fe3",
    "latidude": 40.750264757141,
    "longitude": -73.986472216884,
    "photos": "https:\/\/irs3.4sqi.net\/img\/general\/540x720\/npMyF-gBkV75GBwenA7hJK55ER8lYaUkLFE5BqJzPbU.jpg",
    "POI_category_id": "Bars",
    "POI_name": "Karaoke Duet 35"
  },
  "197": {
    "POI": "4a62c4b4f964a52080c41fe3",
    "latidude": 40.854086337,
    "longitude": -74.138335883617,
    "photos": "https:\/\/irs0.4sqi.net\/img\/general\/612x612\/73ivcO9kvpNaO5U-xIhjQEMOhTD2Jt0BjqkIHW__hWE.jpg",
    "POI_category_id": "Bars",
    "POI_name": "Loop Lounge"
  },
  "198": {
    "POI": "43ed7e9ef964a5204e2f1fe3",
    "latidude": 40.73808374026,
    "longitude": -73.990640044212,
    "photos": "https:\/\/irs1.4sqi.net\/img\/general\/720x537\/wmY0MVa8jOJ8jABNa18rtQFE4V3DYQ_2hj-l6Ba6Xbo.jpg",
    "POI_category_id": "Food",
    "POI_name": "Rosa Mexicano"
  },
  "199": {
    "POI": "4a689777f964a520a0ca1fe3",
    "latidude": 40.75527487549,
    "longitude": -73.978806138039,
    "photos": "https:\/\/irs1.4sqi.net\/img\/general\/720x540\/1655978_Kf7JVMfqtqeNrdQTw8_ZyeMtscWIGUdPWJ03lWFM6uk.jpg",
    "POI_category_id": "Food",
    "POI_name": "Dishes"
  },
  "200": {
    "POI": "4adca802f964a520632e21e3",
    "latidude": 40.77693,
    "longitude": -73.977499,
    "photos": "https:\/\/irs0.4sqi.net\/img\/general\/537x720\/XBCQXKDALBRH4K1N04WHSGXAVR0VTMWD5DVVNUZOJQLSMMTV.jpg",
    "POI_category_id": "Food",
    "POI_name": "Dallas BBQ"
  },
  "201": {
    "POI": "4edae02c9911a3e78dd03897",
    "latidude": 40.742045450872,
    "longitude": -74.000761899948,
    "photos": "https:\/\/irs3.4sqi.net\/img\/general\/540x720\/hOX7cRKP7HVVhvssaadixfXsEa_0TdQx8tgwL_RbGpc.jpg",
    "POI_category_id": "Food",
    "POI_name": "Bareburger"
  },
  "202": {
    "POI": "4cc3a87a1e596dcbe665cc67",
    "latidude": 40.734088,
    "longitude": -74.002822,
    "photos": "https:\/\/irs0.4sqi.net\/img\/general\/720x540\/625784_INVjB5v4e7Cc9wrPNCjucu2mtFS9tht0xOhWH0xLTrg.jpg",
    "POI_category_id": "Bars",
    "POI_name": "The Windsor"
  },
  "203": {
    "POI": "4b5a8d8df964a5200fcb28e3",
    "latidude": 40.856028,
    "longitude": -73.900845,
    "photos": "https:\/\/irs1.4sqi.net\/img\/general\/612x612\/43317698_WjyzDvp_cxBe0T6HKRCixik1gYcPvq2x5RJl59qoL_E.jpg",
    "POI_category_id": "Food",
    "POI_name": "MTA Subway - 182nd\/183rd Sts (B\/D)"
  },
  "204": {
    "POI": "4e691e82b9930387355c629d",
    "latidude": 40.725162932051,
    "longitude": -73.992159523528,
    "photos": "https:\/\/irs1.4sqi.net\/img\/general\/720x720\/2785_Mb7S-jbKezcZy0wGn-_Ls1Uo4Rp5n_MFhMop5yYuKLQ.jpg",
    "POI_category_id": "Food",
    "POI_name": "Saxon + Parole"
  },
  "205": {
    "POI": "4c83a1e451ada1cd8c332710",
    "latidude": 40.741904376575,
    "longitude": -73.98906826973,
    "photos": "https:\/\/irs1.4sqi.net\/img\/general\/612x612\/877655_QnExV7p0IhP3WUTly1BTl-5ubfJzv87qeCV2LvIL36c.jpg",
    "POI_category_id": "Food",
    "POI_name": "Caffe Lavazza @ Eataly"
  },
  "206": {
    "POI": "46fe3f5ef964a520184b1fe3",
    "latidude": 40.725740813376,
    "longitude": -73.990282903138,
    "photos": "https:\/\/irs3.4sqi.net\/img\/general\/720x540\/GXQUFBGULXLAAXMB1N4YJ2ESZLLMPY4TINZNF1EBJ5LVVPXD.jpg",
    "POI_category_id": "Bars",
    "POI_name": "Whiskey Town"
  },
  "207": {
    "POI": "4a5e9b4af964a520e4be1fe3",
    "latidude": 40.76185347444,
    "longitude": -73.983693122864,
    "photos": "https:\/\/irs3.4sqi.net\/img\/general\/540x720\/26652879_UCNVyMeZpohbYJq3bQ6afuuhg5PkkwdJ39NTzAK5hFo.jpg",
    "POI_category_id": "Food",
    "POI_name": "Starbucks"
  },
  "208": {
    "POI": "424b3d80f964a52096201fe3",
    "latidude": 40.756534165264,
    "longitude": -73.994214028772,
    "photos": "https:\/\/irs1.4sqi.net\/img\/general\/540x720\/25215466_lIR_tdjhoxd3w7ipgKf0bht71ZsbuNEDXKQ-eEbmW4I.jpg",
    "POI_category_id": "Food",
    "POI_name": "HK Hell's Kitchen"
  },
  "209": {
    "POI": "3fd66200f964a520a9f11ee3",
    "latidude": 40.718150524855,
    "longitude": -73.960007672155,
    "photos": "https:\/\/irs2.4sqi.net\/img\/general\/1440x1920\/25969501_DZb42nAVM_4XKYfshwup1r4NFoEowppZpBk678GV9cI.jpg",
    "POI_category_id": "Food",
    "POI_name": "Sea"
  },
  "210": {
    "POI": "49059e24f964a5205d521fe3",
    "latidude": 40.722267425428,
    "longitude": -73.988371830482,
    "photos": "https:\/\/irs1.4sqi.net\/img\/general\/736x486\/32694626_MW8QoaXgbGso39WEvLYXmDKjn2Li5yn8FjVVmucz1b4.jpg",
    "POI_category_id": "Bars",
    "POI_name": "The Sixth Ward"
  },
  "211": {
    "POI": "4ba14a5ef964a52092a937e3",
    "latidude": 40.852661,
    "longitude": -73.78941,
    "photos": "https:\/\/irs2.4sqi.net\/img\/general\/720x480\/W5xB6zmVaSuNdrYv58Yuaj9AQ3JFZaimbC4vbwhCwLk.jpg",
    "POI_category_id": "Bars",
    "POI_name": "Fella's"
  },
  "212": {
    "POI": "40cf8d80f964a52033011fe3",
    "latidude": 40.740367189646,
    "longitude": -74.00580607574,
    "photos": "https:\/\/irs3.4sqi.net\/img\/general\/612x612\/6739345_wumZfCaVwb-xJEL9NCZYkBt8v3iupR4vxONEAHOeV9g.jpg",
    "POI_category_id": "Food",
    "POI_name": "Spice Market"
  },
  "213": {
    "POI": "4b46b4c0f964a520252726e3",
    "latidude": 40.746379119424,
    "longitude": -73.981890678406,
    "photos": "https:\/\/irs1.4sqi.net\/img\/general\/612x612\/A5gO0lNWbSHg_Hfv8_aRxV7mxEsg8efCpwflIULB5Zw.jpg",
    "POI_category_id": "Food",
    "POI_name": "MTA Subway - 33rd St (6)"
  },
  "214": {
    "POI": "4c3a934116cb2d7f5e9d01a9",
    "latidude": 40.767249146158,
    "longitude": -73.865246772766,
    "photos": "https:\/\/irs2.4sqi.net\/img\/general\/540x960\/35890931_JsXWp49zMQ9LPTrx7mifUNj2Wtcau4U1-zq47-lgegs.jpg",
    "POI_category_id": "Food",
    "POI_name": "Dunkin' Donuts"
  },
  "215": {
    "POI": "4bd9e2225f34b713dde03579",
    "latidude": 40.660391929765,
    "longitude": -73.998069763184,
    "photos": "https:\/\/irs2.4sqi.net\/img\/general\/537x720\/34329552_Y-DKUQRLLrF2XFMlOEDERh3fiStqCm_oVzcfVv6N0vc.jpg",
    "POI_category_id": "Food",
    "POI_name": "MTA Subway - 25th St (R)"
  },
  "216": {
    "POI": "3fd66200f964a52028e41ee3",
    "latidude": 40.736949700653,
    "longitude": -73.990838527679,
    "photos": "https:\/\/irs1.4sqi.net\/img\/general\/540x540\/25681930_0TghUdtBYpG6fLlFD2hWzZwF-hv4SkouiPzChHWLdzs.jpg",
    "POI_category_id": "Bars",
    "POI_name": "Heartland Brewery"
  },
  "217": {
    "POI": "4aabdb37f964a520775a20e3",
    "latidude": 40.743644,
    "longitude": -73.992241,
    "photos": "https:\/\/irs3.4sqi.net\/img\/general\/537x720\/VGXQINTOYPDT0CXYLPET2HIIUB23TSJIPIQKYSNGDQALTMJU.jpg",
    "POI_category_id": "Food",
    "POI_name": "Starbucks"
  },
  "218": {
    "POI": "3fd66200f964a52040e81ee3",
    "latidude": 40.78231651443,
    "longitude": -73.981112837791,
    "photos": "https:\/\/irs3.4sqi.net\/img\/general\/720x960\/2262669_u2ZMClmwx1XB3e4K6Phto5aA0VBrn_7yW-fIIwSCV0A.jpg",
    "POI_category_id": "Food",
    "POI_name": "Big Nick's Burger Joint & Pizza Joint"
  },
  "219": {
    "POI": "4b53da66f964a5203cad27e3",
    "latidude": 40.744103175215,
    "longitude": -73.912496566772,
    "photos": "https:\/\/irs1.4sqi.net\/img\/general\/720x960\/1875935_J60zdh3O_JTYumedqydtT-ZXwoI9gsKlSwsesKOtQIY.jpg",
    "POI_category_id": "Food",
    "POI_name": "MTA Subway - 52nd St\/Lincoln Ave (7)"
  },
  "220": {
    "POI": "4ad74911f964a5203f0921e3",
    "latidude": 40.740052981229,
    "longitude": -74.00553461933,
    "photos": "https:\/\/irs3.4sqi.net\/img\/general\/720x720\/10841_yvE8gOXBMs--Q-7B5v1UBblZHXJiCs68WtozbXe8kOU.jpg",
    "POI_category_id": "Food",
    "POI_name": "Bill's Bar & Burger"
  },
  "221": {
    "POI": "4b21b0a6f964a5203f4024e3",
    "latidude": 40.743257804672,
    "longitude": -73.984079360962,
    "photos": "https:\/\/irs3.4sqi.net\/img\/general\/720x537\/JLyyi49yRmHAbgcxXENPHWltWl9_xwweF_V-Q31R1Lg.jpg",
    "POI_category_id": "Food",
    "POI_name": "MTA Subway - 28th St (6)"
  },
  "222": {
    "POI": "4a070b6ef964a5201d731fe3",
    "latidude": 40.779018642081,
    "longitude": -73.953957795039,
    "photos": "https:\/\/irs2.4sqi.net\/img\/general\/960x720\/23352574_koahWB3FtYAasoexAU9Kk0NX0ndGDJbKMe-4g-DKN8g.jpg",
    "POI_category_id": "Arts & Entertainment",
    "POI_name": "AMC Loews Orpheum 7"
  },
  "223": {
    "POI": "4d9434251231b60c6bdb74a1",
    "latidude": 40.962451,
    "longitude": -74.092604,
    "photos": "Not exists",
    "POI_category_id": "Arts & Entertainment",
    "POI_name": "Team Brootal HQ"
  },
  "224": {
    "POI": "4eb6999ccc2143e828778409",
    "latidude": 40.80631,
    "longitude": -73.942012,
    "photos": "https:\/\/irs3.4sqi.net\/img\/general\/960x720\/16261955_XmJ4BNDhCKRm_fcwZwO13tFkJkzgnn7ZCdUmcFr0uEQ.jpg",
    "POI_category_id": "Arts & Entertainment",
    "POI_name": "125th & 5th"
  },
  "225": {
    "POI": "4b517d12f964a5203f4e27e3",
    "latidude": 40.761950990466,
    "longitude": -73.983607292175,
    "photos": "https:\/\/irs0.4sqi.net\/img\/general\/960x720\/39415117_uBEN2A6mdt24GBjp27TpZAKJE4BGbvNvVq2PeU6se3I.jpg",
    "POI_category_id": "Food",
    "POI_name": "McDonald's"
  },
  "226": {
    "POI": "4b97f2e5f964a5209a2135e3",
    "latidude": 40.752571906418,
    "longitude": -73.994604267504,
    "photos": "https:\/\/irs2.4sqi.net\/img\/general\/540x720\/gdxlqM_dLFIQzw99_8lbkY1E1Wwm92E9aiqrWL5ZiOw.jpg",
    "POI_category_id": "Food",
    "POI_name": "Caf\u00e9 Bistro"
  },
  "227": {
    "POI": "4a3b9ffdf964a520a8a01fe3",
    "latidude": 40.718889,
    "longitude": -74.043618,
    "photos": "https:\/\/irs3.4sqi.net\/img\/general\/959x717\/2694639_PBTdAKfX1JrDXqPCBOYZ7BD0gDZQdCo0omZY4XRN-ek.jpg",
    "POI_category_id": "Bars",
    "POI_name": "Pint"
  },
  "228": {
    "POI": "3fd66200f964a52044e61ee3",
    "latidude": 40.727177461694,
    "longitude": -74.000483751297,
    "photos": "https:\/\/irs2.4sqi.net\/img\/general\/612x612\/25858669_uN_XYc_4stI_l7gpPbGaTL18OiaWym52Lkki88ZJ_BY.jpg",
    "POI_category_id": "Food",
    "POI_name": "Jane"
  },
  "229": {
    "POI": "4aa71d89f964a520fa4b20e3",
    "latidude": 40.8279,
    "longitude": -73.92476396,
    "photos": "https:\/\/irs1.4sqi.net\/img\/general\/640x640\/6930173_LdxXOlJ4plSW-CoYM2l-FX4UTlQwJocpa3ZHxspIuzk.jpg",
    "POI_category_id": "Bars",
    "POI_name": "Vega Alta"
  },
  "230": {
    "POI": "40a16900f964a520f9f21ee3",
    "latidude": 40.740512179474,
    "longitude": -74.005892152671,
    "photos": "https:\/\/irs0.4sqi.net\/img\/general\/612x612\/51271360_KaaOuMzrCqtJaOwWrbdM_JVTfCOWkeZwYEAR94Dw3hg.jpg",
    "POI_category_id": "Bars",
    "POI_name": "Soho House"
  },
  "231": {
    "POI": "4b4ddddff964a520c5d926e3",
    "latidude": 40.812038,
    "longitude": -74.19436435,
    "photos": "https:\/\/irs2.4sqi.net\/img\/general\/481x641\/2391120_SBfv2O078GuonM5aa4OemGOzCiV6E4g7jgj8kDP2sK4.jpg",
    "POI_category_id": "Food",
    "POI_name": "Dunkin' Donuts"
  },
  "232": {
    "POI": "4bdb964ec712b71350aa63b4",
    "latidude": 40.752285970871,
    "longitude": -73.991723368745,
    "photos": "https:\/\/irs2.4sqi.net\/img\/general\/3456x4896\/48200342_lj2iebATw56x4m6Mzc2hvKon3iXkvguQx9l5H-E1q18.jpg",
    "POI_category_id": "Food",
    "POI_name": "Cafe Nunez"
  },
  "233": {
    "POI": "4ae8fd76f964a520e1b321e3",
    "latidude": 40.7255768,
    "longitude": -74.004252,
    "photos": "https:\/\/irs3.4sqi.net\/img\/general\/960x720\/56111808_Jb3CQzRUfzkiZMx3coLXim78oXWZMnc8ffzJp3d8ZTQ.jpg",
    "POI_category_id": "Food",
    "POI_name": "MTA Subway - Spring St (C\/E)"
  },
  "234": {
    "POI": "4a90286ef964a520451620e3",
    "latidude": 40.766885520904,
    "longitude": -73.921629488468,
    "photos": "https:\/\/irs3.4sqi.net\/img\/general\/641x481\/14606182_RRdo6Oxd5m-bJk3W3b8f4px3riWgV8bs9WXzvxOxtcg.jpg",
    "POI_category_id": "Food",
    "POI_name": "Tastee Corner"
  },
  "235": {
    "POI": "4f451db1e4b0b5bea51b42c5",
    "latidude": 40.727549968069,
    "longitude": -74.007286593564,
    "photos": "https:\/\/irs3.4sqi.net\/img\/general\/720x960\/114220_iyTkxXlkuJqiB-3RhHWOlA8GWcyjjr3AcM5TfplClfo.jpg",
    "POI_category_id": "Food",
    "POI_name": "Hale & Hearty"
  },
  "236": {
    "POI": "4b11c14ff964a520ef8323e3",
    "latidude": 40.742900144669,
    "longitude": -73.992791175842,
    "photos": "https:\/\/irs0.4sqi.net\/img\/general\/612x612\/527493_znXUNK9Ia60MYOSU3r9mbS9pcoOOOHRWB11P2wtSZZk.jpg",
    "POI_category_id": "Food",
    "POI_name": "MTA Subway - 23rd St (F\/M)"
  },
  "237": {
    "POI": "4f64c9d7e4b0c65cc49a0711",
    "latidude": 40.741621902117,
    "longitude": -73.981232399804,
    "photos": "https:\/\/irs0.4sqi.net\/img\/general\/720x540\/8250432_n2xs8ap8_19xCsJF7gPMjb7bkgG2EmwRZJCk9d0VBA4",
    "POI_category_id": "Bars",
    "POI_name": "Tavern On Third"
  },
  "238": {
    "POI": "4e4712d7b61c03d0cd158c78",
    "latidude": 40.730186162165,
    "longitude": -73.983568239531,
    "photos": "https:\/\/irs1.4sqi.net\/img\/general\/612x612\/2488746_5HnyRyT3zgCXiTaqhRVKoLsHL97CaLCv8wREvtYB-i8.jpg",
    "POI_category_id": "Bars",
    "POI_name": "Patsy & Eddie's Boli-Stoli Factory"
  },
  "239": {
    "POI": "4b831a73f964a520d7f730e3",
    "latidude": 40.707649900476,
    "longitude": -74.01398787773,
    "photos": "https:\/\/irs0.4sqi.net\/img\/general\/720x405\/eFlTvHRwO0p4ffG34dU8suou7awYEmDAobcsueYG9oY.jpg",
    "POI_category_id": "Food",
    "POI_name": "MTA Subway - Rector St (1)"
  },
  "240": {
    "POI": "4c28a25d3492a593929ab728",
    "latidude": 40.876127957092,
    "longitude": -73.908548984377,
    "photos": "Not exists",
    "POI_category_id": "Food",
    "POI_name": "C-Town Supermarkets"
  },
  "241": {
    "POI": "4ea4acaab80355a982afff79",
    "latidude": 40.965355830016,
    "longitude": -74.062855080503,
    "photos": "Not exists",
    "POI_category_id": "Bars",
    "POI_name": "The Bush Hideout"
  },
  "242": {
    "POI": "4d7e74cde7e1721ef8cfe00b",
    "latidude": 40.708226,
    "longitude": -74.004974,
    "photos": "https:\/\/irs0.4sqi.net\/img\/general\/537x720\/IexOmL2u7_cFI1-xya_ajD9w1Lmt1Yj7C9EkqPbCzpg.jpg",
    "POI_category_id": "Bars",
    "POI_name": "Ryan Maguire's Ale House"
  },
  "243": {
    "POI": "3fd66200f964a5208fe81ee3",
    "latidude": 40.758566003585,
    "longitude": -73.988985900948,
    "photos": "https:\/\/irs1.4sqi.net\/img\/general\/720x960\/48905527_N9Qe8JG4R4ngAI_iizj5Eo3hJ7TrU8GQkCcDcMxzHKU.jpg",
    "POI_category_id": "Bars",
    "POI_name": "Smith's Bar"
  },
  "244": {
    "POI": "4b5249fff964a520237527e3",
    "latidude": 40.80202685,
    "longitude": -74.204137683333,
    "photos": "https:\/\/irs1.4sqi.net\/img\/general\/960x720\/35191253_2SeyZFJ0vLow7gXxRD5Lfkhmfyf2hF7YaW69Ut7jk30.jpg",
    "POI_category_id": "Food",
    "POI_name": "Fitzgerald's 1928"
  },
  "245": {
    "POI": "4ecbb4d993adb4bd1b32cc39",
    "latidude": 40.669615852033,
    "longitude": -73.959600143694,
    "photos": "https:\/\/irs2.4sqi.net\/img\/general\/720x406\/hIKjDu5cu7OFSCGRf0RUEjfWxokZTdAL6YdUTtKMZkY.jpg",
    "POI_category_id": "Food",
    "POI_name": "MTA Subway - S Franklin Ave Shuttle"
  },
  "246": {
    "POI": "4afefbe2f964a5207b3222e3",
    "latidude": 40.759448033837,
    "longitude": -74.00562286377,
    "photos": "https:\/\/irs3.4sqi.net\/img\/general\/720x960\/596521_lJfJ1fVjIDKULBrg21dwc7dM6SmZ9EMYJVJDe0beW7A.jpg",
    "POI_category_id": "Food",
    "POI_name": "NY Waterway Ferry Terminal Midtown"
  },
  "247": {
    "POI": "49e8f3bef964a520b5651fe3",
    "latidude": 40.702512006979,
    "longitude": -73.926776932728,
    "photos": "https:\/\/irs2.4sqi.net\/img\/general\/960x720\/30255497_bmgm01jRtFH_y_KQ27np38kBgvHnEGffrQAgCqhS9To.jpg",
    "POI_category_id": "Bars",
    "POI_name": "Tandem"
  },
  "248": {
    "POI": "457fdbb3f964a520523f1fe3",
    "latidude": 40.748315,
    "longitude": -73.986064,
    "photos": "https:\/\/irs1.4sqi.net\/img\/general\/641x481\/27615039_99To5MB2LnkRgSj9gwpLL7EX5qL8OzRHMEzMVu7UWTM.jpg",
    "POI_category_id": "Bars",
    "POI_name": "Foley's NY Pub & Restaurant"
  },
  "249": {
    "POI": "4b8d5d69f964a5204af732e3",
    "latidude": 40.743790226796,
    "longitude": -73.983891606331,
    "photos": "https:\/\/irs0.4sqi.net\/img\/general\/537x720\/2P4_n4FsP9cKTg_9W0lsrc6w7foRuSfcBq-j-itv7tU.jpg",
    "POI_category_id": "Food",
    "POI_name": "Bread & Butter"
  },
  "250": {
    "POI": "48e0bd97f964a5201a521fe3",
    "latidude": 40.747354686763,
    "longitude": -73.984400411442,
    "photos": "https:\/\/irs3.4sqi.net\/img\/general\/720x540\/SwXWJ0PuXDWqNeGhnWabKnyYSL-gbZL_plAkCtzVnuQ.jpg",
    "POI_category_id": "Bars",
    "POI_name": "Rattle N Hum"
  },
  "251": {
    "POI": "4e6e89b5d22daab469b62696",
    "latidude": 40.740266,
    "longitude": -74.005814,
    "photos": "https:\/\/irs1.4sqi.net\/img\/general\/960x720\/1399116_Iz6LP4PuoJgnEphFum3_cd9X6ajw7gUhE6amx0PtIfY.jpg",
    "POI_category_id": "Food",
    "POI_name": "Catch"
  },
  "252": {
    "POI": "49ba5f96f964a52060531fe3",
    "latidude": 40.686418589256,
    "longitude": -73.985302448273,
    "photos": "https:\/\/irs1.4sqi.net\/img\/general\/612x612\/FOXmpiic5PduynoZHH61sX4-1AMWrHiQASPpI36eHTM.jpg",
    "POI_category_id": "Food",
    "POI_name": "Building on Bond"
  },
  "253": {
    "POI": "4badc1bcf964a52047673be3",
    "latidude": 40.709173924123,
    "longitude": -73.820700645447,
    "photos": "https:\/\/irs2.4sqi.net\/img\/general\/540x720\/3E46JxbYAENBmFOuAhsFERfXHavgKMo94PPqzZMAoAY.jpg",
    "POI_category_id": "Food",
    "POI_name": "MTA Subway - Briarwood\/Van Wyck Blvd (E\/F)"
  },
  "254": {
    "POI": "4ac51996f964a52052b020e3",
    "latidude": 40.802379657376,
    "longitude": -73.964708536803,
    "photos": "https:\/\/irs2.4sqi.net\/img\/general\/612x612\/49240071_fpLlIeTnc6upIEtXNnafPshzcp5O_Q_Wtl1384LXbwQ.jpg",
    "POI_category_id": "Food",
    "POI_name": "109 St. Gourmet Deli"
  },
  "255": {
    "POI": "45b24bbef964a520a5411fe3",
    "latidude": 40.740772820998,
    "longitude": -74.006896380676,
    "photos": "https:\/\/irs3.4sqi.net\/img\/general\/612x612\/114926_EXkqj66Pigi-FZw0r4Fmhb2nGPAPfS3iYFlFijDuoX4.jpg",
    "POI_category_id": "Food",
    "POI_name": "Fig & Olive"
  },
  "256": {
    "POI": "48e480eef964a52022521fe3",
    "latidude": 40.772124376373,
    "longitude": -73.983693122864,
    "photos": "https:\/\/irs2.4sqi.net\/img\/general\/720x720\/12536017_b82k1_SnnZiSARMwu4jX1Y2Jn0Fg2M8_VWBDTFUMwgs.jpg",
    "POI_category_id": "Arts & Entertainment",
    "POI_name": "The Metropolitan Opera"
  },
  "257": {
    "POI": "4f5e82dae4b01989c438cbb6",
    "latidude": 40.758701794735,
    "longitude": -73.978529218148,
    "photos": "https:\/\/irs3.4sqi.net\/img\/general\/720x540\/H14eweFcDFNvIZERfCmRHzr7yhtc-LiOp-2CIYVJ2Xo.jpg",
    "POI_category_id": "Food",
    "POI_name": "Blue Bottle Coffee"
  },
  "258": {
    "POI": "4a417310f964a52052a51fe3",
    "latidude": 40.767426503356,
    "longitude": -73.986007353896,
    "photos": "https:\/\/irs3.4sqi.net\/img\/general\/612x612\/185177_FMr82XjtmWUUtgst7W4bO2tmD1lPfOeMr1-bbQXGXvs.jpg",
    "POI_category_id": "Bars",
    "POI_name": "Lincoln Park Grill"
  },
  "259": {
    "POI": "4be874a488ed2d7fa3e4cb1d",
    "latidude": 40.732609084517,
    "longitude": -73.987780714066,
    "photos": "https:\/\/irs2.4sqi.net\/img\/general\/612x612\/2199_N6sfOkQrSnLkoUJ8cJJxlakzkZdhMK-pu6guRP0qH-M.jpg",
    "POI_category_id": "Bars",
    "POI_name": "The Penny Farthing"
  },
  "260": {
    "POI": "4b186041f964a520bed123e3",
    "latidude": 40.767916965403,
    "longitude": -73.963575975753,
    "photos": "https:\/\/irs2.4sqi.net\/img\/general\/720x540\/BQIXVTFZXU14XHAHUDJKRTHKFDSECXIHHU01YNEPXNR2TE13.jpg",
    "POI_category_id": "Food",
    "POI_name": "MTA Subway - 68th St\/Hunter College (6)"
  },
  "261": {
    "POI": "4e19c38514957dc705e3c599",
    "latidude": 40.827317694487,
    "longitude": -73.945617378699,
    "photos": "Not exists",
    "POI_category_id": "Food",
    "POI_name": "Timo's"
  },
  "262": {
    "POI": "49cdac4cf964a5200e5a1fe3",
    "latidude": 40.735025289432,
    "longitude": -74.026721629969,
    "photos": "https:\/\/irs0.4sqi.net\/img\/general\/537x720\/JdHN32Yfl8rXhtsDV2qpQIBtHQz9HnJM923OdcK9erM.jpg",
    "POI_category_id": "Food",
    "POI_name": "NY Waterway Ferry Terminal Hoboken South"
  },
  "263": {
    "POI": "4ad3686ef964a5203be420e3",
    "latidude": 40.702415,
    "longitude": -74.01258301,
    "photos": "https:\/\/irs1.4sqi.net\/img\/general\/720x540\/cw8v0SA6OcMHCGEKo0X1R09eWvFeEDFSWfsWceFqyAA.jpg",
    "POI_category_id": "Food",
    "POI_name": "Starbucks"
  },
  "264": {
    "POI": "3fd66200f964a5206ce41ee3",
    "latidude": 40.737715562882,
    "longitude": -73.988222616801,
    "photos": "https:\/\/irs2.4sqi.net\/img\/general\/720x540\/461567_stt2mnh-YETjdL7xwKksqHGR9xEZAXS7MQeuRAFnaig.jpg",
    "POI_category_id": "Food",
    "POI_name": "City Crab Shack"
  },
  "265": {
    "POI": "4a356654f964a520f19c1fe3",
    "latidude": 40.761398250935,
    "longitude": -73.967980133204,
    "photos": "https:\/\/irs2.4sqi.net\/img\/general\/720x960\/44861193_7k-rbk0OQvKh7h-33nm28VCqq2awU-rboWXUSEt1Yag.jpg",
    "POI_category_id": "Food",
    "POI_name": "Starbucks"
  },
  "266": {
    "POI": "4bce1f82937ca593e0f8ad92",
    "latidude": 40.755771101827,
    "longitude": -73.991143740458,
    "photos": "https:\/\/irs2.4sqi.net\/img\/general\/504x336\/75311684_lxP_-YmNfBohyLnHOOBKkJT3DtSmF7QrQHypX_o0QnY.jpg",
    "POI_category_id": "Food",
    "POI_name": "Port Authority Food Court"
  },
  "267": {
    "POI": "4a2946ddf964a5207a951fe3",
    "latidude": 40.749890423418,
    "longitude": -73.9923620224,
    "photos": "https:\/\/irs2.4sqi.net\/img\/general\/960x720\/48476_fHRUB9t7zFR7izvojBCxzFVItYsmze0fEX_jKvLt8gI.jpg",
    "POI_category_id": "Food",
    "POI_name": "Krispy Kreme Doughnuts"
  },
  "268": {
    "POI": "4b16f47bf964a5201ac023e3",
    "latidude": 40.748037258303,
    "longitude": -73.946871757507,
    "photos": "https:\/\/irs1.4sqi.net\/img\/general\/1440x1920\/31559_HZghYx-0UCt1mAo3yQnKTFyUGq462LQD1mW3GNRbkqM.jpg",
    "POI_category_id": "Food",
    "POI_name": "MTA Subway - Court Sq\/23rd St (E\/M)"
  },
  "269": {
    "POI": "4f42ce8fe4b0899ccd92ca55",
    "latidude": 40.749809145329,
    "longitude": -73.985677957535,
    "photos": "https:\/\/irs0.4sqi.net\/img\/general\/612x612\/VE_YXY8Om70g-8Yd1SF-qFKPEAdzkza5Li6hZJxFozY.jpg",
    "POI_category_id": "Bars",
    "POI_name": "The Liberty"
  },
  "270": {
    "POI": "4a35a5f5f964a520439d1fe3",
    "latidude": 40.755547134314,
    "longitude": -73.96856546402,
    "photos": "https:\/\/irs3.4sqi.net\/img\/general\/540x720\/15052875_qSrbHflCd741NqGwmKDf1ITAm_9omzl7Z67Wz-CK5rQ.jpg",
    "POI_category_id": "Bars",
    "POI_name": "The Stag's Head"
  },
  "271": {
    "POI": "4e68c13d483bc776308ceb32",
    "latidude": 40.728847453839,
    "longitude": -74.007458746056,
    "photos": "Not exists",
    "POI_category_id": "Arts & Entertainment",
    "POI_name": "Kiss Fm"
  },
  "272": {
    "POI": "4b64b313f964a52059c92ae3",
    "latidude": 40.630727792284,
    "longitude": -73.97716999054,
    "photos": "https:\/\/irs0.4sqi.net\/img\/general\/720x960\/1636373_KWUgKonlUPbk-5OijOQoRfNDk-MBsdYx53LFTZ2DlHc.jpg",
    "POI_category_id": "Food",
    "POI_name": "MTA Subway - 18th Ave (F)"
  },
  "273": {
    "POI": "4e0a03a5fa767637fd3c47f1",
    "latidude": 40.711828664036,
    "longitude": -73.998822238386,
    "photos": "https:\/\/irs0.4sqi.net\/img\/general\/640x640\/11672362_Ib3jvYDqxYR65IIP3GuElfCD3TqgwXg5IUiwzd-oWQs.jpg",
    "POI_category_id": "Food",
    "POI_name": "James Street Deli"
  },
  "274": {
    "POI": "470f3ff0f964a5208e4b1fe3",
    "latidude": 40.769444226988,
    "longitude": -73.992951486257,
    "photos": "https:\/\/irs1.4sqi.net\/img\/general\/499x332\/87588601_J9HOoqVKE8bOex1bnY8ODKImkWyGwRcnOCFLlmf6y1U.png",
    "POI_category_id": "Arts & Entertainment",
    "POI_name": "Terminal 5"
  },
  "275": {
    "POI": "4c17d49650389c749264b3cf",
    "latidude": 40.756567978468,
    "longitude": -73.99236038395,
    "photos": "https:\/\/irs1.4sqi.net\/img\/general\/612x612\/32993056_sgOmjLgxsDZIYvfG0ukCSuVfRzfsDgSd_aY1BBc6lmA.jpg",
    "POI_category_id": "Bars",
    "POI_name": "Sky Room"
  },
  "276": {
    "POI": "3fd66200f964a52032e91ee3",
    "latidude": 40.734289596486,
    "longitude": -73.992555505301,
    "photos": "https:\/\/irs1.4sqi.net\/img\/general\/959x698\/8744718_0bmSEjvJXkSy5vv8YbPNPsK0POabRvAPFI0QuBwBvnQ.jpg",
    "POI_category_id": "Arts & Entertainment",
    "POI_name": "Bowlmor Lanes Union Square"
  },
  "277": {
    "POI": "49de2becf964a5202b601fe3",
    "latidude": 40.75503606545,
    "longitude": -73.986512390176,
    "photos": "https:\/\/irs2.4sqi.net\/img\/general\/540x720\/9156203_ofMFWNheaLfvh7ah-pnHwwERLPIeLJrG_t3ewJ8LnyM.jpg",
    "POI_category_id": "Food",
    "POI_name": "Starbucks"
  },
  "278": {
    "POI": "472ba436f964a520ff4b1fe3",
    "latidude": 40.741011864432,
    "longitude": -73.981915363251,
    "photos": "https:\/\/irs1.4sqi.net\/img\/general\/1920x1440\/21595290_FfM_aJ6retQKda-Acn4Ihv57-PjF1k82H1cO8Nn-0ag.jpg",
    "POI_category_id": "Bars",
    "POI_name": "Mad Hatter"
  },
  "279": {
    "POI": "4b1c683af964a520060724e3",
    "latidude": 40.670645945729,
    "longitude": -73.958029747009,
    "photos": "https:\/\/irs0.4sqi.net\/img\/general\/612x612\/nHZgvVFmXp9WW67rxvVn6ATZP-RSCVY6PS4FWrgetiw.jpg",
    "POI_category_id": "Food",
    "POI_name": "MTA Subway -  Franklin Ave (2\/3\/4\/5)"
  },
  "280": {
    "POI": "4bfd0081bf6576b0cf91acb8",
    "latidude": 40.902772100743,
    "longitude": -74.078114202406,
    "photos": "https:\/\/irs0.4sqi.net\/img\/general\/1440x810\/11868385_og6MiR-98tFhrOy3xGSwwx5Nxnv-pXMMfiuCQQS61_s.jpg",
    "POI_category_id": "Food",
    "POI_name": "Rochelle Park Diner"
  },
  "281": {
    "POI": "4da307d5e7b8a09077802121",
    "latidude": 40.756782443929,
    "longitude": -74.001502990723,
    "photos": "https:\/\/irs2.4sqi.net\/img\/general\/720x537\/xj9Rh9wA-n-gYuli0c7Ge7Vp5j4U6-UQfggyCtIdtOg.jpg",
    "POI_category_id": "Arts & Entertainment",
    "POI_name": "New York International Auto Show"
  },
  "282": {
    "POI": "4f687a3ae4b0b0f93cc6f299",
    "latidude": 40.917386977412,
    "longitude": -74.174430311657,
    "photos": "https:\/\/irs0.4sqi.net\/img\/general\/537x720\/oqYlUQ0EBEHXMRlc8EV67QgrsGdCcDPtkGLAKeItL5o.jpg",
    "POI_category_id": "Bars",
    "POI_name": "herbal life"
  },
  "283": {
    "POI": "3fd66200f964a52036e41ee3",
    "latidude": 40.729616590846,
    "longitude": -73.989797830582,
    "photos": "https:\/\/irs1.4sqi.net\/img\/general\/720x960\/44836889_jOaDvEv-cn8pUSevc3FAkvkx6z50nyva3AsXhe5JsJM.jpg",
    "POI_category_id": "Bars",
    "POI_name": "Continental"
  },
  "284": {
    "POI": "49df6421f964a520c4601fe3",
    "latidude": 40.715427737247,
    "longitude": -73.944444358349,
    "photos": "https:\/\/irs1.4sqi.net\/img\/general\/540x720\/pHcDeIonHqrivzcvsmQSxEvgqI0tIa1bGHFDSCVaKxk.jpg",
    "POI_category_id": "Food",
    "POI_name": "Variety Coffee Roasters"
  },
  "285": {
    "POI": "4efcba2377161596a8040d45",
    "latidude": 40.718412119809,
    "longitude": -73.989894390106,
    "photos": "https:\/\/irs0.4sqi.net\/img\/general\/612x612\/571861_f2PiFktN4aUdnFIIBE4xgSsAHXQFc0rhgJFHE5QNbG4.jpg",
    "POI_category_id": "Bars",
    "POI_name": "Top Hops"
  },
  "286": {
    "POI": "4b943f56f964a520027134e3",
    "latidude": 40.856947786152,
    "longitude": -73.791643153825,
    "photos": "https:\/\/irs0.4sqi.net\/img\/general\/540x720\/EMVnb6xP0p42LfBUiF7d1b4FI1kjJEx2t68CpMQNebU.jpg",
    "POI_category_id": "Food",
    "POI_name": "Lobster House"
  },
  "287": {
    "POI": "49cfef8cf964a520e65a1fe3",
    "latidude": 40.686796156365,
    "longitude": -73.993789356309,
    "photos": "https:\/\/irs0.4sqi.net\/img\/general\/612x612\/wb9FWoI4UUtmHLC1ykOk0OJpUHZuowa0526IGaQ79Uw.jpg",
    "POI_category_id": "Food",
    "POI_name": "Cafe Pedlar"
  },
  "288": {
    "POI": "44e454a3f964a52053371fe3",
    "latidude": 40.763512849968,
    "longitude": -73.98691986166,
    "photos": "https:\/\/irs3.4sqi.net\/img\/general\/1094x730\/78631811_PeOnigHieBJd5v7ZH81Krw0RG9WPDJe_9TUvJVWmsTc.jpg",
    "POI_category_id": "Bars",
    "POI_name": "InFuse51"
  },
  "289": {
    "POI": "44d8c0faf964a52078361fe3",
    "latidude": 40.774772,
    "longitude": -73.954047,
    "photos": "https:\/\/irs2.4sqi.net\/img\/general\/720x537\/e1NJlZMkxjBLXUOzoc3bMD3qysfYFBY127lwZgac890.jpg",
    "POI_category_id": "Food",
    "POI_name": "Blockheads Burritos"
  },
  "290": {
    "POI": "4c7ecc952042b1f79b0dc1ad",
    "latidude": 40.762762512171,
    "longitude": -73.971739530645,
    "photos": "https:\/\/irs1.4sqi.net\/img\/general\/720x537\/35003449_qcdICmhZS3RKzSb8T3k6FlpKvWvg4uzM4tnSBv7IfUc.jpg",
    "POI_category_id": "Bars",
    "POI_name": "Lavo"
  },
  "291": {
    "POI": "4b12ff73f964a5205e9223e3",
    "latidude": 40.926078390763,
    "longitude": -74.097352705292,
    "photos": "https:\/\/irs2.4sqi.net\/img\/general\/540x720\/_5HjT3kR4r3xnrefkV5R8sDB816EQkvpw615NsdpCi4.jpg",
    "POI_category_id": "Food",
    "POI_name": "Gotham City Diner"
  },
  "292": {
    "POI": "4c05304339d476b0227b32a7",
    "latidude": 40.843363740221,
    "longitude": -73.935255934094,
    "photos": "https:\/\/irs2.4sqi.net\/img\/general\/720x960\/212405_EISOnvOt1v686Ti_z2w8oSFVab_FYmsdSWZolJIXjr8.jpg",
    "POI_category_id": "Arts & Entertainment",
    "POI_name": "AnVilEntertainmentRecorders World HQ"
  },
  "293": {
    "POI": "49ecb093f964a52071671fe3",
    "latidude": 40.756961236841,
    "longitude": -73.989073634148,
    "photos": "https:\/\/irs0.4sqi.net\/img\/general\/720x540\/ur5hrdqxkQP2RBFcCOLoGqq6zh5j1rXjI1WYZAGRIUg.jpg",
    "POI_category_id": "Food",
    "POI_name": "Dallas BBQ"
  },
  "294": {
    "POI": "4a60baf0f964a52018c11fe3",
    "latidude": 40.730592217474,
    "longitude": -73.98163318634,
    "photos": "https:\/\/irs3.4sqi.net\/img\/general\/540x720\/d2_MyyNVEQsIMzYLIbMMj0d3PubnKe5bDPgv2XivENM.jpg",
    "POI_category_id": "Food",
    "POI_name": "MTA Subway - 1st Ave (L)"
  },
  "295": {
    "POI": "4dc57b9352b1e8f9f7d51323",
    "latidude": 40.763001418927,
    "longitude": -73.967641496855,
    "photos": "https:\/\/irs1.4sqi.net\/img\/general\/720x960\/42020795_BH08znFpTPjBDnTOswP0FbTjwk3tMWD5VmwJwWqxwU0.jpg",
    "POI_category_id": "Food",
    "POI_name": "Sprinkles Cupcakes"
  },
  "296": {
    "POI": "4b8ca10bf964a520c5d832e3",
    "latidude": 40.883571909125,
    "longitude": -73.862671852112,
    "photos": "https:\/\/irs0.4sqi.net\/img\/general\/540x720\/12048718_mz_rocIHxnbP86kwYk7cwuSmXrg2_bsHw740zXrRLds.jpg",
    "POI_category_id": "Food",
    "POI_name": "MTA Subway - 219th St (2\/5)"
  },
  "297": {
    "POI": "4e677ea014952e0a12e7db30",
    "latidude": 40.942167412122,
    "longitude": -73.961683695648,
    "photos": "https:\/\/irs0.4sqi.net\/img\/general\/960x623\/13403774_DA_j7WFJ8mTysf5XoF6c_rCqTHLKQyeR1nAo9wcOLxg.jpg",
    "POI_category_id": "Food",
    "POI_name": "Paul's House Of Fish"
  },
  "298": {
    "POI": "482af93cf964a520cd4f1fe3",
    "latidude": 40.754650438013,
    "longitude": -73.923458712196,
    "photos": "https:\/\/irs0.4sqi.net\/img\/general\/960x720\/6989887_HTKbg9NnTQ726iH3n-a2Ay-LGQ5ApThZDyeu8MKfcDM.jpg",
    "POI_category_id": "Arts & Entertainment",
    "POI_name": "United Artists Kaufman Astoria 14"
  },
  "299": {
    "POI": "4abe3770f964a520078c20e3",
    "latidude": 40.612301029761,
    "longitude": -73.982242496143,
    "photos": "https:\/\/irs0.4sqi.net\/img\/general\/720x540\/ST14X4034V1FXJDJZ5CCXI1MPMJHAIXFVU20KIGGU3H3EEEW.jpg",
    "POI_category_id": "Food",
    "POI_name": "MTA Subway - Bay Parkway (N)"
  },
  "300": {
    "POI": "49ce965bf964a520605a1fe3",
    "latidude": 40.729579746865,
    "longitude": -73.986914122631,
    "photos": "https:\/\/irs1.4sqi.net\/img\/general\/720x540\/HQN2SEEL2TBA34LYF4YC324ZLX1YSFWYLKC43KB41S5MFIZV.jpg",
    "POI_category_id": "Food",
    "POI_name": "16 Handles"
  },
  "301": {
    "POI": "4bbc92b02d9ea593e9bca0ce",
    "latidude": 40.740566935962,
    "longitude": -74.005427336781,
    "photos": "https:\/\/irs2.4sqi.net\/img\/general\/540x720\/tZvxCyD7R5R9a_vUV8CJ-fCNwAQLNlxSEMn2dT1yZGk.jpg",
    "POI_category_id": "Food",
    "POI_name": "Dos Caminos"
  },
  "302": {
    "POI": "3fd66200f964a52034e81ee3",
    "latidude": 40.771142,
    "longitude": -73.983464,
    "photos": "https:\/\/irs3.4sqi.net\/img\/general\/540x540\/kJCWP-LoP8-dxw9fUAD0lu6dPw2NYEd1bAChVNbkQdc.jpg",
    "POI_category_id": "Food",
    "POI_name": "Rosa Mexicano"
  },
  "303": {
    "POI": "3fd66200f964a520f4e71ee3",
    "latidude": 40.757052340695,
    "longitude": -73.967211026061,
    "photos": "https:\/\/irs2.4sqi.net\/img\/general\/960x720\/42987533_mz7v4cfGflAAVVVnIFA398nSAI4uiF-Z2Awu7NoAq_k.jpg",
    "POI_category_id": "Bars",
    "POI_name": "Midtown 1015"
  },
  "304": {
    "POI": "4b5bbfaff964a520001429e3",
    "latidude": 40.817219537028,
    "longitude": -74.076733589172,
    "photos": "https:\/\/irs3.4sqi.net\/img\/general\/350x240\/78972980_SNyuIKcGUK7XuLjq7AcmZS19RUPPCHrX1ft1kxZEyTo.jpg",
    "POI_category_id": "Arts & Entertainment",
    "POI_name": "Meadowlands Racing & Entertainment"
  },
  "305": {
    "POI": "4ff74eeae4b0f08304f382fc",
    "latidude": 40.76094971457,
    "longitude": -73.963216211233,
    "photos": "https:\/\/irs2.4sqi.net\/img\/general\/720x540\/1970576_4uuChN0vIH_VUkEV-L0dOXGW7y18S8ryHD-ZUnKM70U.jpg",
    "POI_category_id": "Bars",
    "POI_name": "The Jeffrey Craft Beer & Bites"
  },
  "306": {
    "POI": "466ec638f964a520b7471fe3",
    "latidude": 40.738508322019,
    "longitude": -73.989978963871,
    "photos": "https:\/\/irs3.4sqi.net\/img\/general\/720x960\/29433493_QzZ_e-X1SdAmf8BjsmY09Qr-t8s539fofArf2JVVU4U.jpg",
    "POI_category_id": "Arts & Entertainment",
    "POI_name": "AMC Loews 19th Street East 6"
  },
  "307": {
    "POI": "4b565676f964a520120c28e3",
    "latidude": 40.725891,
    "longitude": -73.79143081,
    "photos": "https:\/\/irs2.4sqi.net\/img\/general\/960x720\/2273383_7FhRIs5xo4ZOLNjCgOOXgxxP-cvHBaocIcj0EkBKkaI.jpg",
    "POI_category_id": "Food",
    "POI_name": "Cold Stone Creamery"
  },
  "308": {
    "POI": "4dc18b838877c00d6adb2c2d",
    "latidude": 40.761900630957,
    "longitude": -73.98709203245,
    "photos": "https:\/\/irs3.4sqi.net\/img\/general\/720x431\/MqHCgromRs6rJcWGNsLM3NHgO0i-ktzj9ZhLkkPN1wo.jpg",
    "POI_category_id": "Food",
    "POI_name": "Donna Bell's Bakeshop"
  },
  "309": {
    "POI": "44abe943f964a52008351fe3",
    "latidude": 40.714482,
    "longitude": -73.957302,
    "photos": "https:\/\/irs2.4sqi.net\/img\/general\/720x720\/rwVLclKd7JEmOolQMZkzwOL4fJKbD7X8K0LMksgVIOE.jpg",
    "POI_category_id": "Food",
    "POI_name": "Roebling Tea Room"
  },
  "310": {
    "POI": "4c1d043a63750f47737cb767",
    "latidude": 40.650929995457,
    "longitude": -73.949469054083,
    "photos": "https:\/\/irs2.4sqi.net\/img\/general\/540x720\/5725571_lWhz63_6ObIO32rFW3eQ6tpgGaIjU-AEfPDUhm0kpkw.jpg",
    "POI_category_id": "Food",
    "POI_name": "McDonald's"
  },
  "311": {
    "POI": "4b3a52ccf964a520a36425e3",
    "latidude": 40.752036441838,
    "longitude": -73.991160957165,
    "photos": "https:\/\/irs2.4sqi.net\/img\/general\/505x720\/38751393_PG88zej7mfqVkp5jA0NKE8gtPC39s1ac1CRvMlNZZ64.jpg",
    "POI_category_id": "Food",
    "POI_name": "Best Bagel & Coffee"
  },
  "312": {
    "POI": "4b6daa1cf964a52072842ce3",
    "latidude": 40.777054553123,
    "longitude": -73.949779021643,
    "photos": "https:\/\/irs0.4sqi.net\/img\/general\/720x960\/26889232__80l-8wWayH-wYugDm-axgE7ha7RLa0w0pI6tVtSdPQ.jpg",
    "POI_category_id": "Food",
    "POI_name": "Dunkin Donuts"
  },
  "313": {
    "POI": "46cc7756f964a5203b4a1fe3",
    "latidude": 40.748638729834,
    "longitude": -73.975667953491,
    "photos": "https:\/\/irs3.4sqi.net\/img\/general\/402x540\/ggQd-saWReXABoPvOx8yxsHYJeusCGO9B7Yrpzl6Qgs.jpg",
    "POI_category_id": "Bars",
    "POI_name": "Wharf Bar & Grill"
  },
  "314": {
    "POI": "3fd66200f964a520d7e81ee3",
    "latidude": 40.772301,
    "longitude": -73.955844,
    "photos": "https:\/\/irs0.4sqi.net\/img\/general\/612x612\/70057_TOXObfxN6re4PJo8rm1sws6tQadfEAPUU8RmWeFYXF4.jpg",
    "POI_category_id": "Food",
    "POI_name": "Brother Jimmy's BBQ"
  },
  "315": {
    "POI": "4d59fbb724466ea8c4507d9f",
    "latidude": 40.863929,
    "longitude": -74.079579,
    "photos": "https:\/\/irs3.4sqi.net\/img\/general\/537x720\/N0K3AOYT1ODWE2FPMKTRKMMVW14CBSG32OANKBIDLEI1P25T.jpg",
    "POI_category_id": "Bars",
    "POI_name": "Hop Bar"
  },
  "316": {
    "POI": "4aaadceff964a520c35720e3",
    "latidude": 40.743303012583,
    "longitude": -73.918263697745,
    "photos": "https:\/\/irs0.4sqi.net\/img\/general\/960x720\/13669434_-cKGAlZjJFnnZ-ZVzgw9xRQZICpiT5oK4y-gww4FPk0.jpg",
    "POI_category_id": "Food",
    "POI_name": "Starbucks"
  },
  "317": {
    "POI": "47e100b9f964a520414e1fe3",
    "latidude": 40.705078985421,
    "longitude": -73.933644039238,
    "photos": "https:\/\/irs1.4sqi.net\/img\/general\/717x959\/16215_shFnF6-vYFuhNomzq6kwbyR_WR1j7kOFuPWM-sB4jbI.jpg",
    "POI_category_id": "Food",
    "POI_name": "Roberta's Pizza"
  },
  "318": {
    "POI": "4cd4802467adf04d9aa22791",
    "latidude": 40.596606301815,
    "longitude": -73.977272311824,
    "photos": "https:\/\/irs3.4sqi.net\/img\/general\/720x960\/15249685_3jHVRFzQaMRtc1pz8vnxtRmgZvmCgoDhuJfl0oebyS8.jpg",
    "POI_category_id": "Food",
    "POI_name": "Meats Supreme"
  },
  "319": {
    "POI": "4a189b31f964a520cf791fe3",
    "latidude": 40.804387366583,
    "longitude": -73.966608365334,
    "photos": "https:\/\/irs3.4sqi.net\/img\/general\/720x540\/kF31NTrIrboNWQk3wM_mfaGKFDCRKRGHvlCPJdVAvrk.jpg",
    "POI_category_id": "Food",
    "POI_name": "Koronet Pizza"
  },
  "320": {
    "POI": "4aad5579f964a520c05f20e3",
    "latidude": 40.712183695842,
    "longitude": -73.967779247306,
    "photos": "https:\/\/irs2.4sqi.net\/img\/general\/720x540\/86-yohzbj6-asRYje7Yw3lNu8-t_JwOeQxxILoYQx1I.jpg",
    "POI_category_id": "Food",
    "POI_name": "MTA Subway - Williamsburg Bridge (J\/M\/Z)"
  },
  "321": {
    "POI": "4b3672c7f964a520ab3525e3",
    "latidude": 40.911939990197,
    "longitude": -73.779498354999,
    "photos": "https:\/\/irs2.4sqi.net\/img\/general\/720x540\/2013790_x3YFBxqkMOFQ6szwQqkWhiK9FmAC5AVh2zp6k8trkrM.jpg",
    "POI_category_id": "Arts & Entertainment",
    "POI_name": "Regal Cinemas New Roc 18 IMAX & RPX"
  },
  "322": {
    "POI": "4bad51daf964a520d1453be3",
    "latidude": 40.715096356817,
    "longitude": -74.048483222723,
    "photos": "https:\/\/irs3.4sqi.net\/img\/general\/404x720\/S0ZIL5OUUSO1KDWRTSIRYMT3Z1FDWSVB4CCWKBS1KBY2F0QF.jpg",
    "POI_category_id": "Food",
    "POI_name": "NJT - Jersey Avenue Light Rail Station"
  },
  "323": {
    "POI": "3fd66200f964a52042e31ee3",
    "latidude": 40.750865996455,
    "longitude": -73.986643984549,
    "photos": "https:\/\/irs3.4sqi.net\/img\/general\/1920x1440\/46509235_Q5NS_jWktVrYMiA4OfmwCCiuYs3BtcOaY7KRhDqwDrM.jpg",
    "POI_category_id": "Food",
    "POI_name": "Keens Steakhouse"
  },
  "324": {
    "POI": "4aeee85af964a520a2d421e3",
    "latidude": 40.753897310016,
    "longitude": -73.978554010391,
    "photos": "https:\/\/irs0.4sqi.net\/img\/general\/640x426\/12758192_4ErE0MLQBIUK2d_9tMy81wVkj99yUBi2ZhKeyGC0vRQ.jpg",
    "POI_category_id": "Food",
    "POI_name": "Starbucks"
  },
  "325": {
    "POI": "3fd66200f964a5206de91ee3",
    "latidude": 40.72646806485,
    "longitude": -73.995659798384,
    "photos": "https:\/\/irs1.4sqi.net\/img\/general\/540x720\/JMGrcm1oyHoqxbPkpEjNPzSy-M5dYy_3xbwUNacfhIY.jpg",
    "POI_category_id": "Food",
    "POI_name": "Two Boots"
  },
  "326": {
    "POI": "4a5d19b7f964a52032bd1fe3",
    "latidude": 40.709355127917,
    "longitude": -74.01115998714,
    "photos": "https:\/\/irs1.4sqi.net\/img\/general\/720x960\/11921551_OEW6oGxo7AOCZvL_fgT2l1Ee0lgRkfglmnJcoYSOs4s.jpg",
    "POI_category_id": "Bars",
    "POI_name": "Trinity Place"
  },